zpid,streetAddress,zipcode,yearBuilt,latestPrice,latest_salemonth,latest_saleyear,latitude,longitude,livingAreaSqFt,numOfBathrooms,numOfBedrooms,homeAge_years,price_sqft
116080992,10505 Cannon Mark Way,78717,2014,687850,8,2018,30.486408233642567,-97.7947235107422,4564,6.0,5,7,150
88013985,15524 Staked Plains Loop,78717,2007,409000,12,2018,30.49437522888184,-97.79651641845705,3233,4.0,5,14,126
70344594,15217 Sabal Palm Rd,78724,2006,199000,12,2020,30.25570678710937,-97.57695770263672,1511,2.0,3,15,131
185217484,14004 Chisos Trl,78717,2008,400000,1,2020,30.49563789367676,-97.7978744506836,2228,2.0,3,13,179
121719682,14108 Laurinburg Dr,78717,2015,699000,12,2020,30.490257263183604,-97.79174041748048,4020,4.0,4,6,173
116080981,14405 Laurinburg Dr,78717,2013,549900,3,2018,30.4887752532959,-97.7948989868164,3494,5.0,4,8,157
83822421,6700 Evelyn Rd,78747,2007,350000,3,2019,30.08774757385254,-97.7052001953125,1216,5.0,8,14,287
29462564,14702 Menifee St,78725,1999,240000,12,2020,30.233154296875,-97.58731842041016,1534,3.0,3,22,156
70355992,15303 Lucian St,78725,2013,249900,12,2020,30.23806571960449,-97.57801818847656,1738,2.0,3,8,143
89659978,14224 Canyon Trl,78717,2010,400000,4,2020,30.492189407348643,-97.79308319091795,2630,3.0,5,11,152
70355990,15207 Lucian St,78725,2012,200000,1,2018,30.238237380981445,-97.57833099365234,1652,2.0,3,9,121
70333917,12525 Verandah Ct,78726,2004,875000,11,2020,30.426456451416016,-97.85929107666016,3402,4.0,4,17,257
29471292,9601 Cliffbrook Dr,78747,1970,164995,10,2020,30.10340118408203,-97.71691131591795,2350,2.0,3,51,70
241932966,5509 Bonneville Bnd,78744,2016,287500,4,2019,30.17614555358887,-97.6981430053711,1634,2.0,3,5,175
116080975,10912 Crosbyton Ln,78717,2013,650000,3,2020,30.488996505737305,-97.79379272460938,3047,4.0,4,8,213
145656987,4606 Belfield Ln,78725,2015,196000,1,2019,30.24176788330078,-97.5790557861328,1399,2.0,3,6,140
83821490,11223 Tom Sassman Rd,78747,1985,239999,8,2018,30.08502960205078,-97.69979095458984,1264,2.0,3,36,189
70333915,12512 Verandah Ct,78726,2005,830000,9,2019,30.42596435546875,-97.85840606689452,3573,5.0,4,16,232
29462467,14500 James Vincent Dr,78725,2000,219990,6,2019,30.231584548950195,-97.5912628173828,2035,3.0,3,21,108
89548387,11928 Aitne Ln,78725,2009,195000,3,2019,30.2150993347168,-97.63643646240234,1304,2.0,3,12,149
241932964,5524 Loma Alta Dr,78744,2016,309999,3,2018,30.175445556640625,-97.69815826416016,1907,3.0,3,5,162
29376494,10707 Beckwood Dr,78726,1988,427000,3,2020,30.44289970397949,-97.82464599609376,2484,3.0,4,33,171
69808963,2703 Crownover St,78725,2006,205000,1,2018,30.22610282897949,-97.59052276611328,2088,3.0,4,15,98
121656950,9704 Rodriguez Rd,78747,2013,300000,11,2018,30.11837577819824,-97.70490264892578,2100,3.0,4,8,142
185217474,11429 Running Brush Ln,78717,2008,344600,9,2019,30.494144439697266,-97.79753112792967,2134,3.0,3,13,161
29366911,14503 Ridgetop Ter,78732,1992,3395000,7,2020,30.41670608520508,-97.90070343017578,4747,5.0,5,29,715
145657963,7212 Garnet Mill Ln,78744,2015,399900,6,2020,30.16147994995117,-97.72125244140624,2629,3.0,3,6,152
29370494,10700 Mcfarlie Cv,78750,1991,648000,11,2020,30.42639350891113,-97.79273223876952,2567,3.0,4,30,252
89548844,2521 Elara Dr,78725,2009,186500,2,2018,30.213117599487305,-97.63728332519533,1420,2.0,3,12,131
125901465,804 Hatton Hill Ct,78725,2015,219000,4,2020,30.23823547363281,-97.58043670654295,1267,2.0,3,6,172
63228462,3100 Caleb Dr,78725,2004,179900,3,2018,30.22929382324219,-97.59007263183594,1194,2.0,3,17,150
96639474,13500 Hymeadow Cir,78729,2011,405000,2,2020,30.4632568359375,-97.78580474853516,2142,2.0,3,10,189
64431038,10207 Fm 1625,78747,1993,565000,8,2019,30.11583137512207,-97.71607208251952,2169,3.0,3,28,260
89547842,2312 Elara Dr,78725,2014,194098,3,2019,30.21501922607422,-97.63804626464844,1296,2.0,3,7,149
251030464,5708 Roderick Dr,78724,2018,255700,4,2019,30.25937271118164,-97.58674621582033,2570,3.0,4,3,99
29376491,10701 Beckwood Dr,78726,1989,495000,6,2019,30.442386627197266,-97.8249969482422,3140,3.0,5,32,157
241932962,5504 Loma Alta Dr,78744,2016,325000,8,2020,30.17613220214844,-97.6977310180664,2068,3.0,4,5,157
64729016,10044 Vallejo Plains Ln #4,78719,1982,250000,8,2020,30.10301971435547,-97.69129943847656,2736,2.0,4,39,91
70355962,15101 Nordyke Ln,78725,2006,198500,4,2020,30.23895072937012,-97.58032989501952,1807,2.0,4,15,109
29376490,10615 Beckwood Dr,78726,1990,485000,10,2020,30.442228317260746,-97.82511138916016,2956,3.0,5,31,164
250825472,12100 Wickline Way,78717,2016,440000,5,2020,30.49202919006348,-97.79917907714844,2595,3.0,5,5,169
89550834,2525 Elara Dr,78725,2010,225000,2,2019,30.21296501159668,-97.63726806640624,1420,2.0,3,11,158
64674953,4010 Louise Lee Dr,78725,2003,207900,7,2018,30.24004554748535,-97.5873565673828,1929,2.0,3,18,107
29374483,10714 Fountainbleu Cir,78750,1976,575000,1,2021,30.433971405029297,-97.8055191040039,2170,2.0,4,45,264
29461422,4015 Ayala Dr,78725,1996,200000,9,2019,30.237213134765625,-97.58354949951172,1592,3.0,3,25,125
116080970,10816 Crosbyton Ln,78717,2016,675000,7,2019,30.48861694335937,-97.79280853271484,3837,5.0,5,5,175
70333905,8201 Denali Pkwy APT 2,78726,2011,975000,1,2018,30.42463111877441,-97.8576889038086,3450,4.0,4,10,282
29557482,9512 Eddystone St,78729,1976,259000,1,2019,30.45297622680664,-97.78694915771484,1239,2.0,3,45,209
241932948,7912 Annalise Dr,78744,2016,275000,2,2020,30.17658805847168,-97.69738006591795,1449,2.0,3,5,189
29461406,14611 Highsmith St,78725,1997,199999,8,2019,30.23699188232422,-97.58533477783205,1335,2.0,3,24,149
2081704483,12011 Clayton Creek Ave,78725,2020,268729,6,2020,30.22005844116211,-97.63460540771484,1514,2.0,3,1,177
116080962,10701 Copper Basin Cv,78717,2013,625000,7,2019,30.4880485534668,-97.79401397705078,3111,3.0,4,8,200
29376480,11204 Tanya Trl,78726,1989,435000,7,2020,30.443117141723643,-97.8240737915039,3113,3.0,4,32,139
241932946,8016 Annalise Dr,78744,2016,285000,12,2018,30.17620658874512,-97.696533203125,1973,3.0,3,5,144
29351492,5602 Wolf Ct,78731,1995,399900,1,2019,30.352840423583984,-97.79354858398438,1487,2.0,2,26,268
241932900,809 Silver Wing Dr,78725,2016,215000,8,2019,30.23677062988281,-97.58175659179688,1370,2.0,3,5,156
29370900,12709 Cloud Mountain Xing,78726,2000,519500,11,2020,30.42306327819824,-97.86306762695312,3055,4.0,4,21,170
110538990,9621 Solana Vista Loop #B,78750,2010,450000,8,2018,30.39213752746582,-97.826904296875,2283,3.0,4,11,197
29372980,11100 Amesite Trl,78726,1995,463700,10,2018,30.43273162841797,-97.8270034790039,3115,3.0,4,26,148
29459947,14304 Rosseau St,78725,1987,209900,3,2020,30.24313545227051,-97.58552551269533,1419,2.0,3,34,147
241932936,5217 Bonneville Bnd,78744,2016,375000,8,2020,30.17849540710449,-97.69666290283205,2682,5.0,7,5,139
89550803,12008 Thyone Dr,78725,2014,229900,6,2020,30.21564483642578,-97.63555145263672,1936,3.0,4,7,118
29370898,12726 Cloud Mountain Xing,78726,2001,549900,8,2018,30.42333984375,-97.86441040039062,3794,4.0,4,20,144
29358990,7003 Jester Blvd,78750,1983,690000,1,2019,30.375999450683604,-97.7984848022461,2967,3.0,4,38,232
116080957,10704 Copper Basin Cv,78717,2014,584900,3,2019,30.48835182189941,-97.7944564819336,3787,4.0,5,7,154
29375979,11902 Arch Hill Dr,78750,1977,599800,9,2019,30.44328117370605,-97.79827880859376,2753,3.0,5,44,217
241932935,5229 Bonneville Bnd,78744,2016,325000,9,2018,30.178211212158203,-97.6968231201172,2068,3.0,4,5,157
80115957,14904 Mistletoe Heights Dr,78717,2006,350000,8,2020,30.500444412231445,-97.79090881347656,1791,3.0,3,15,195
29370894,12704 Cloud Mountain Xing,78726,2001,574900,3,2018,30.423627853393555,-97.86334991455078,3338,4.0,4,20,172
121658485,9413 Solana Vista Loop #B,78750,2013,374000,4,2019,30.393047332763672,-97.82636260986328,2283,3.0,4,8,163
29375978,11907 Arch Hill Dr,78750,1977,699900,10,2019,30.443683624267567,-97.79793548583984,2997,3.0,4,44,233
145654939,4617 Cleto St,78725,2017,205000,9,2019,30.24139213562012,-97.57658386230467,1225,2.0,3,4,167
29370884,8225 Phantom Canyon Dr,78726,2002,425000,9,2020,30.425716400146484,-97.8606414794922,2864,3.0,5,19,148
29351485,5706 Eagle Clfs,78731,1984,425000,7,2019,30.3537712097168,-97.79362487792967,1573,2.0,3,37,270
29372475,9008 Scotsman Dr,78750,1988,684000,10,2020,30.42850685119629,-97.79425048828124,2656,3.0,4,33,257
185218453,10512 Dunham Forest Rd,78717,2002,359965,7,2020,30.493675231933604,-97.7860107421875,1975,3.0,4,19,182
29392994,4602 Sherwyn Dr,78725,1971,120000,6,2018,30.28166007995605,-97.66173553466795,1745,2.0,4,50,68
2088245915,7716 Barbary Ct,78744,2017,388990,10,2018,30.16103935241699,-97.71595001220705,2502,3.0,4,4,155
29373974,8711 Crest Ridge Cir,78750,1972,435000,10,2018,30.435590744018555,-97.78577423095705,2313,2.0,4,49,188
29360984,7601 Almond Cv,78750,1989,795000,7,2020,30.38071632385254,-97.78955841064452,2700,3.0,4,32,294
241932874,15013 Roody Ln,78725,2016,218800,5,2019,30.236482620239247,-97.58241271972656,1480,2.0,3,5,147
145551433,Esper Ln,78725,2015,200000,12,2019,30.2393798828125,-97.57323455810548,1321,3.0,3,6,151
29376473,11104 Crossland Dr,78726,1989,368500,3,2018,30.44245338439941,-97.82276916503906,2267,2.0,4,32,162
305430992,6217 Seville Dr,78724,2018,454500,10,2020,30.29319190979004,-97.6419677734375,2508,3.0,3,3,181
29347484,4202 Plantain Cv,78730,1996,799000,6,2019,30.35632514953613,-97.83723449707033,4491,7.0,5,25,177
69811366,14310 Cottingham Dr,78725,2010,199000,2,2020,30.23320579528809,-97.5913543701172,1268,2.0,3,11,156
116080950,14017 Genesee Trl,78717,2014,622800,12,2018,30.48777961730957,-97.7927703857422,2903,3.0,3,7,214
29370873,12619 Cloud Mountain Xing,78726,2000,429000,1,2020,30.423702239990234,-97.86214447021484,3033,4.0,4,21,141
83814991,9016 Elfen Cv,78724,2009,259900,3,2019,30.283544540405284,-97.62621307373048,2573,3.0,3,12,101
29375973,9010 Spring Lake Dr,78750,1977,629000,10,2020,30.438554763793945,-97.7947235107422,2340,3.0,4,44,268
116080945,14109 Genesee Trl,78717,2014,525000,2,2019,30.48757362365723,-97.7937240600586,3187,3.0,4,7,164
29370860,8108 Red Bird Ct,78726,2002,345000,11,2020,30.424427032470703,-97.86241912841795,3675,4.0,5,19,93
249890717,1804 Rinker Ranch Dr,78725,2017,255000,3,2020,30.21903991699219,-97.6354522705078,1641,2.0,3,4,155
2082177903,5501 Gooding Dr,78744,2019,282226,2,2020,30.17507362365723,-97.6934585571289,1413,2.0,3,2,199
63835425,15108 Stave Oak Ln,78724,2004,180000,10,2018,30.252227783203125,-97.5805206298828,1326,2.0,3,17,135
70341361,2907 Crownover St,78725,2005,184900,8,2019,30.227558135986328,-97.58959197998048,1203,2.0,3,16,153
29358983,7004 Juneberry Cv,78750,1982,750000,9,2020,30.37546539306641,-97.79732513427734,2922,4.0,3,39,256
29374973,11129 Rio Vista Dr,78726,1996,475000,11,2020,30.43508529663086,-97.82764434814452,2428,3.0,3,25,195
89550707,2420 Kale Dr,78725,2010,219000,9,2019,30.213565826416016,-97.63741302490234,1256,2.0,3,11,174
29459909,14311 Kincheloe St,78725,1988,229999,5,2019,30.24378967285156,-97.5844955444336,1712,3.0,3,33,134
29375972,9012 Spring Lake Dr,78750,1975,415000,3,2018,30.43881416320801,-97.79473876953124,2234,3.0,3,46,185
29396983,6021 Signal Point,78724,1980,175000,12,2018,30.29134750366211,-97.64522552490234,1315,2.0,3,41,133
58299481,7609 Crossmeadow Dr,78750,1971,398900,12,2020,30.37837791442871,-97.78571319580078,2089,2.0,3,50,190
145656393,7100 Auburn Blaze Ln,78744,2016,389900,7,2019,30.161739349365234,-97.71949768066406,3319,3.0,5,5,117
116080940,14205 Genesee Trl,78717,2013,536170,8,2018,30.48785781860352,-97.7947006225586,3415,4.0,5,8,157
29370850,8121 Endeavor Cir,78726,2001,665000,11,2018,30.424415588378903,-97.86055755615234,4137,4.0,5,20,160
29459907,14307 Kincheloe St,78725,1987,179900,3,2018,30.24393081665039,-97.58484649658205,1587,2.0,4,34,113
29374967,11150 Rio Vista Dr,78726,1994,519900,9,2020,30.436147689819336,-97.82756805419922,2766,3.0,4,27,187
2082038175,1628 Caballo Blanco Rd,78725,2019,341054,12,2019,30.220149993896484,-97.63470458984376,2643,3.0,4,2,129
29358997,7002 Anaqua Dr,78750,1984,428000,10,2019,30.376209259033203,-97.7973175048828,2576,3.0,3,37,166
70341359,2903 Crownover St,78725,2005,185000,12,2018,30.22736740112305,-97.58971405029295,1203,2.0,3,16,153
185217435,11704 Running Brush Cv,78717,2008,415000,8,2018,30.49654769897461,-97.7974853515625,3257,4.0,5,13,127
83823977,6001 Elfen Way,78724,2009,249900,6,2018,30.28300094604492,-97.6276397705078,1659,3.0,3,12,150
70352470,804 Lakewood Hills Ter,78732,2006,725000,5,2019,30.35407638549805,-97.91303253173828,3486,4.0,4,15,207
145551402,4525 Esper Ln,78725,2015,198000,12,2019,30.23840713500977,-97.57384490966795,1321,3.0,3,6,149
29355980,7903 Entrada Cv,78730,1984,550000,1,2018,30.37429428100586,-97.80758666992188,2100,2.0,3,37,261
29465172,11901 Garden Meadow Rd,78725,1995,179900,6,2018,30.22450065612793,-97.62870025634766,1500,2.0,3,26,119
58300466,11558 Spicewood Pkwy APT 10,78750,2000,355000,9,2020,30.444562911987305,-97.80654907226562,1616,3.0,3,21,219
29438720,13304 Bennington Ln,78753,1993,310000,5,2020,30.40708923339844,-97.64974975585938,2046,2.0,4,28,151
29459899,14201 Kincheloe St,78725,1987,155000,2,2018,30.24452972412109,-97.58594512939452,1411,2.0,3,34,109
64812856,3409 Etheredge Dr,78725,2004,189000,6,2019,30.232646942138672,-97.59120178222656,1892,3.0,3,17,99
70352465,904 Lakewood Hills Ter,78732,2007,1025000,8,2020,30.355552673339844,-97.91254425048828,4558,5.0,5,14,224
145655881,8004 Annalise Dr,78744,2016,339900,7,2020,30.1763916015625,-97.69696044921876,2095,2.0,3,5,162
2079153478,10711 Twisted Elm Dr,78726,2016,515000,7,2020,30.399572372436523,-97.84323120117188,2623,3.0,4,5,196
29366849,13815 Lake View Dr,78732,1987,625000,6,2020,30.415252685546875,-97.88896942138672,1947,2.0,2,34,321
185217434,11700 Running Brush Cv,78717,2008,339900,5,2018,30.49635887145996,-97.797607421875,2192,2.0,3,13,155
58265966,11108 Sandstone Trl,78750,2001,650000,3,2020,30.452693939208984,-97.81514739990234,3352,3.0,5,20,193
63835398,5512 Catsby Ct,78724,2004,170000,4,2018,30.25343894958496,-97.58031463623048,1268,2.0,3,17,134
70352461,1008 Lakewood Hills Ter,78732,2009,759900,8,2019,30.35622596740723,-97.91169738769533,4867,4.0,4,12,156
29396970,5600 Signal Point,78724,1980,214500,5,2018,30.288440704345703,-97.64766693115234,1306,2.0,3,41,164
29438718,13308 Bennington Ln,78753,1993,275000,1,2018,30.40733528137207,-97.64958953857422,2398,3.0,4,28,114
29370839,8232 Phantom Canyon Dr,78726,2001,588000,5,2019,30.426279067993164,-97.86062622070312,4274,4.0,4,20,137
2132333345,4515 Credo Ln,78725,2010,174900,3,2018,30.23693084716797,-97.5716781616211,1372,3.0,3,11,127
29376465,11015 Conchos Cv,78726,1999,937000,3,2020,30.44224166870117,-97.82142639160156,3695,4.0,4,22,253
29358978,7005 Juneberry Cv,78750,1983,595000,6,2019,30.37502479553223,-97.79694366455078,2448,2.0,4,38,243
121658390,4517 Senda Ln #181,78725,2013,169900,7,2018,30.23735237121582,-97.57234954833984,1250,3.0,2,8,135
89028960,12104 Montclair Bnd,78732,2009,625000,7,2019,30.341896057128903,-97.90794372558594,3485,4.0,5,12,179
80093467,8917 Sun Shower Bnd,78724,2006,235000,3,2019,30.27799987792969,-97.63249969482422,1526,2.0,3,15,153
250180857,7313 Coit Rd,78744,2017,359900,11,2019,30.15862846374512,-97.71546173095705,2124,2.0,3,4,169
29372965,10300 Echoridge Dr,78750,1992,350000,2,2019,30.431196212768555,-97.81404876708984,2965,3.0,4,29,118
185217429,11616 Running Brush Ln,78717,2008,449000,9,2019,30.49615478515625,-97.79851531982422,3205,4.0,5,13,140
2089686965,5917 Florencia Ln,78724,2018,425900,2,2019,30.290372848510746,-97.6427764892578,2403,3.0,3,3,177
29370836,8104 Sebastapol Cv,78726,2001,595000,11,2019,30.42441177368164,-97.8601531982422,3939,4.0,5,20,151
29375964,9205 Springwood Dr,78750,1976,625000,12,2020,30.44091606140137,-97.79505920410156,2116,3.0,3,45,295
116080928,14024 Abervil Trl,78717,2013,729000,5,2020,30.48698425292969,-97.79361724853516,3409,3.0,4,8,213
29353976,9104 Westminster Glen Ave,78730,1998,993000,4,2018,30.36399841308593,-97.83609008789062,3848,4.0,5,23,258
29459882,4604 Fallenash Dr,78725,1987,199000,12,2018,30.244930267333984,-97.58519744873048,1786,2.0,4,34,111
2087922352,7112 Sentry Path,78744,2018,365990,3,2019,30.16120529174805,-97.71661376953124,2289,3.0,3,3,159
29366834,13800 Lake View Dr,78732,1975,240000,3,2018,30.416173934936523,-97.88702392578124,596,1.0,2,46,402
29465145,12000 Garden Gate Dr,78725,1983,220000,8,2020,30.22534942626953,-97.62696838378906,1554,2.0,4,38,141
80090962,5209 English Glade Dr,78724,2007,265000,7,2020,30.27394294738769,-97.63169860839844,1704,2.0,3,14,155
29374964,11136 Rio Vista Dr,78726,1996,445000,2,2020,30.4356632232666,-97.82742309570312,2852,3.0,3,25,156
70341343,3006 Crownover St,78725,2005,95000,11,2018,30.228349685668945,-97.58968353271484,2088,3.0,4,16,45
70338381,15101 Chamberlain Ct,78724,2005,179900,8,2018,30.25310707092285,-97.57906341552734,1206,2.0,3,16,149
29362475,7709 Jester Blvd,78750,1988,735000,3,2019,30.386159896850582,-97.79894256591795,3119,3.0,4,33,235
185217426,15421 Staked Plains Loop,78717,2008,429900,11,2020,30.495710372924805,-97.7973403930664,2191,2.0,3,13,196
64533962,5723 Sendero Hills Pkwy,78724,2003,66900,7,2018,30.29021453857422,-97.64751434326172,1160,2.0,3,18,57
249710345,7305 Van Ness St,78744,2018,385000,6,2020,30.15879249572754,-97.71443939208984,2420,3.0,4,3,159
29459881,4606 Fallenash Dr,78725,1987,195000,9,2018,30.24505043029785,-97.58512115478516,2094,3.0,4,34,93
89552136,2321 Kale Dr,78725,2010,194900,1,2019,30.214155197143555,-97.63653564453124,1096,2.0,3,11,177
124154926,13827 Camp Comfort Ln,78717,2016,459990,11,2020,30.486351013183604,-97.78875732421876,2425,3.0,3,5,189
29396959,5710 Signal Point,78724,1980,229900,4,2019,30.28887176513672,-97.64627838134766,1320,2.0,3,41,174
29353975,9100 Westminster Glen Ave,78730,1999,1150000,2,2019,30.36372184753418,-97.83583068847656,4878,5.0,5,22,235
29373963,11508 Champion Dr,78750,1972,609900,10,2019,30.435476303100582,-97.78872680664062,2873,3.0,4,49,212
79981880,15201 Knighten Ln,78725,2014,230000,12,2019,30.23963165283203,-97.5785903930664,1652,2.0,3,7,139
251035839,7817 Bestride Bnd,78744,2019,439000,8,2020,30.1521110534668,-97.71968841552734,2501,3.0,4,2,175
96636926,13016 Hymeadow Cir,78729,2012,375000,4,2018,30.46333312988281,-97.78795623779295,2406,2.0,3,9,155
29396958,5716 Signal Point,78724,1980,225000,6,2020,30.28889465332031,-97.64612579345705,1306,2.0,3,41,172
83820449,13221 Country Trails Ln,78732,2006,769000,2,2018,30.37158966064453,-97.90799713134766,4362,4.0,4,15,176
29370826,8110 Castle Peake Trl,78726,1989,342000,9,2019,30.42425537109375,-97.8611068725586,1540,2.0,3,32,222
29360969,6711 Lakewood Point Cv,78750,1990,715000,10,2019,30.37984085083008,-97.79019927978516,2463,3.0,3,31,290
29375962,9209 Springwood Dr,78750,1995,550000,12,2019,30.44031524658203,-97.79513549804688,2454,3.0,3,26,224
243333921,12205 Wickline Way,78717,2016,360000,6,2018,30.49216270446777,-97.79757690429688,1968,2.0,3,5,182
145657839,5405 Bonneville Bnd,78744,2015,284900,7,2019,30.176950454711925,-97.69762420654295,1821,2.0,3,6,156
29343949,1307 Minnie Dr,78732,1986,279900,5,2018,30.331302642822266,-97.92613983154295,1848,2.0,2,35,151
29370822,8107 Castle Peake Trl,78726,1989,413900,4,2020,30.423587799072266,-97.86082458496094,2218,2.0,3,32,186
69814957,3324 Pearce Rd,78730,2007,995000,4,2019,30.34108924865723,-97.8251953125,3371,4.0,4,14,295
29351469,5700 Scout Blf,78731,1983,415000,7,2019,30.35490226745605,-97.79246520996094,1555,2.0,3,38,266
29344952,9402 Caracas Dr,78733,1994,585000,10,2018,30.33530044555664,-97.85971069335938,2647,3.0,4,27,221
29374462,9804 Brandywine Cir,78750,1976,750000,7,2020,30.434844970703125,-97.8052978515625,2373,3.0,4,45,316
145658835,5305 Ingersoll Ln,78744,2015,279000,6,2018,30.176738739013672,-97.6942367553711,1914,3.0,3,6,145
70341334,2917 Caleb Dr,78725,2005,210000,9,2019,30.22792625427246,-97.59042358398438,2088,3.0,4,16,100
29370820,8108 Davis Mountain Pass,78726,1991,369000,11,2019,30.42355918884277,-97.8604965209961,1861,2.0,3,30,198
29392931,6309 Huntleigh Way,78725,1971,329900,8,2019,30.282695770263672,-97.6613311767578,1567,2.0,4,50,210
79981874,4504 Halliday Ave,78725,2012,205000,6,2018,30.240419387817383,-97.57878112792967,1344,2.0,3,9,152
29344951,9400 Caracas Dr,78733,1994,789000,1,2021,30.335166931152344,-97.85942840576172,2410,3.0,4,27,327
29377461,11502 Sawatch Cir,78726,1983,649000,3,2019,30.44839859008789,-97.81524658203124,3227,4.0,5,38,201
29343946,1403 Minnie Dr,78732,1982,150000,8,2018,30.33075523376465,-97.92648315429688,704,1.0,1,39,213
124154920,10821 Ballard Path,78717,2016,599000,8,2018,30.48361015319824,-97.78970336914062,3329,5.0,4,5,179
145658832,5100 Ingersoll Ln,78744,2015,299999,3,2018,30.17754554748535,-97.69530487060548,2068,3.0,4,6,145
29370806,12505 Presque Cv,78726,2001,499800,8,2019,30.42321586608887,-97.85885620117188,3304,4.0,4,20,151
83816428,5516 Nelson Oaks Dr,78724,2013,238999,5,2018,30.27976036071777,-97.6302719116211,1670,2.0,3,8,143
29343454,3503 Riva Ridge Rd,78746,1983,915000,8,2019,30.33086395263672,-97.80318450927734,2665,3.0,3,38,343
29334450,1406 Mesa Ridge Ln,78735,2001,699000,11,2020,30.29571914672852,-97.85768127441406,4021,4.0,4,20,173
64901960,10208 Peekston Dr,78726,2004,598000,7,2020,30.431655883789062,-97.81967163085938,3559,4.0,4,17,168
29360963,7866 Lakewood Dr,78750,1985,465000,7,2019,30.37971115112305,-97.79204559326172,2357,2.5,3,36,197
145658831,8000 Izetta Ln,78744,2015,305000,6,2019,30.17706680297852,-97.69659423828124,1982,3.0,3,6,153
145657822,14324 Deaf Smith Blvd,78725,2015,254000,8,2020,30.23415184020996,-97.59125518798828,2047,2.0,4,6,124
29370800,12600 Alberta Ridge Trl,78726,2002,579000,6,2020,30.4251708984375,-97.859130859375,3976,4.0,5,19,145
90240442,12504 Tierra Grande Trl,78732,2009,379000,7,2018,30.34282684326172,-97.91471099853516,1943,2.0,4,12,195
120895447,12209 Labrador Bay Ct,78732,2012,649900,2,2018,30.344581604003903,-97.90592956542967,3689,4.0,4,9,176
29375958,9307 Springwood Dr,78750,1972,525000,4,2019,30.43920707702637,-97.79519653320312,3650,4.0,4,49,143
29358963,7100 Rusty Fig Dr,78750,1985,359000,8,2020,30.37553596496582,-97.79554748535156,2498,3.0,4,36,143
29341440,6307 Ayres Dr,78746,1990,1995000,11,2020,30.31850242614746,-97.81710815429688,4771,4.0,5,31,418
29344947,1603 Olympus Dr,78733,1990,714900,6,2019,30.33751106262207,-97.8603973388672,2929,3.0,4,31,244
90240441,12500 Tierra Grande Trl,78732,2010,474997,5,2019,30.342981338500977,-97.91455841064452,3348,4.0,5,11,141
89553418,14201 Canyon Trl,78717,2009,335000,8,2019,30.491443634033203,-97.7938003540039,1746,2.0,3,12,191
144334371,14207 Vandever St,78725,1986,199950,1,2020,30.24240303039551,-97.58674621582033,1589,2.0,4,35,125
29396923,5909 Alsace Trl,78724,2005,230000,12,2020,30.29047966003418,-97.64567565917967,1190,2.0,3,16,193
121655462,7300 Colina Vista Loop #A,78750,2013,405000,5,2020,30.39280128479004,-97.82899475097656,2299,3.0,4,8,176
114405939,2516 Ionian Cv,78730,2012,1100000,1,2020,30.33772277832031,-97.82962799072266,4380,4.0,4,9,251
29344946,1601 Olympus Dr,78733,1994,559500,7,2019,30.337270736694336,-97.8605499267578,2066,3.0,3,27,270
70338371,15102 Chamberlain Ct,78724,2005,199000,12,2018,30.253454208374023,-97.57862091064452,1704,3.0,3,16,116
185217414,15509 Staked Plains Loop,78717,2008,379900,2,2019,30.49484062194824,-97.79741668701172,2960,3.0,4,13,128
83821443,13807 Panorama Dr,78732,2006,1400000,10,2020,30.418142318725582,-97.8867416381836,4500,5.0,5,15,311
2108947312,4506 Senda Ln,78725,2013,194000,1,2020,30.23692321777344,-97.57284545898438,1250,2.5,2,8,155
29578456,9626 Dalewood Dr,78729,1997,330000,11,2019,30.458351135253903,-97.78578186035156,2084,3.0,3,24,158
89550945,10909 Gaillardia,78733,2009,1050000,12,2019,30.31587219238281,-97.90125274658205,4743,5.0,5,12,221
29459868,4404 Sojourner St,78725,1987,157000,7,2018,30.24336814880371,-97.5872039794922,1419,2.0,3,34,110
83823430,12609 Belcara Pl,78732,2007,535000,2,2020,30.34814262390137,-97.91183471679688,3297,4.0,4,14,162
29341439,2301 Far Gallant Dr,78746,2000,1589000,11,2018,30.320770263671875,-97.80978393554688,4637,4.0,4,21,342
83813736,13408 Bullick Hollow Rd,78726,2006,399000,5,2018,30.43041610717773,-97.87356567382812,1649,2.0,3,15,241
251036682,7912 Yokohama Ter,78744,2020,505847,9,2020,30.14763641357422,-97.72132110595705,2766,3.0,4,1,182
29377453,10404 Loring Dr,78750,1984,574887,2,2020,30.444908142089844,-97.80756378173828,2698,3.0,4,37,213
58298456,4801 High Gate Dr,78730,2002,1695000,8,2020,30.36892890930176,-97.8440399169922,4407,6.0,4,19,384
64455725,6810 Comanche Trl,78732,1995,1200000,4,2019,30.41154670715332,-97.87689208984376,2731,4.0,3,26,439
124842807,5412 Ingersoll Ln,78744,2015,249000,4,2019,30.17583656311035,-97.69471740722656,1448,2.0,3,6,171
248957890,11720 Prado Ranch Blvd,78725,2018,310000,1,2021,30.21955871582031,-97.63343048095705,1370,2.0,3,3,226
114405941,108 Piedmont Hills Pass,78732,2012,750000,7,2020,30.3416805267334,-97.9033203125,4056,4.0,4,9,184
29377451,11407 Costakes Dr,78750,1982,869999,6,2020,30.444305419921875,-97.80763244628906,3542,4.0,4,39,245
83814922,13605 Coleto Creek Trl,78732,2007,825000,5,2018,30.37281608581543,-97.9089813232422,4631,5.0,5,14,178
58298866,6304 Lakewood Holw,78750,1980,475000,12,2020,30.37455940246582,-97.78865051269533,1490,2.0,3,41,318
111370914,9512 Southwick Dr,78724,2014,239000,1,2018,30.27737617492676,-97.62435150146484,1510,2.0,3,7,158
29341434,2105 Far Gallant Dr,78746,1998,1499000,9,2018,30.31882286071777,-97.80889129638672,4707,6.0,5,23,318
29368693,14531 Ridgetop Ter,78732,2002,2490000,10,2018,30.41967582702637,-97.8985366821289,4147,4.0,4,19,600
79981862,4400 Belfield Ln,78725,2012,131860,2,2019,30.23990821838379,-97.57988739013672,1598,3.0,3,9,82
145656291,7105 Cherry Beam Path,78744,2016,395000,1,2020,30.164386749267567,-97.72289276123048,2515,3.0,4,5,157
29465089,11701 Garden Grove Dr,78725,2000,129900,3,2018,30.224666595458984,-97.63119506835938,2304,2.0,4,21,56
83827917,12301 Edenvale Path,78732,2010,615000,7,2020,30.342079162597656,-97.90857696533205,3458,4.0,4,11,177
241930950,9003 Bayshore Bnd UNIT 17,78726,2017,557000,5,2020,30.43212890625,-97.84231567382812,3013,4.0,4,4,184
58298454,4900 Elizabeth Jane Ct,78730,2000,975000,3,2018,30.368019104003903,-97.8419418334961,4620,4.0,5,21,211
2080854860,4616 Esper Ln,78725,2015,200000,3,2020,30.239591598510746,-97.57331848144533,1321,3.0,3,6,151
29346937,10916 River Terrace Cir,78733,1965,599500,6,2019,30.340877532958984,-97.88216400146484,986,1.0,2,56,608
29360950,6621 Mesa Hollow Dr,78750,1994,450000,3,2019,30.37924194335937,-97.78970336914062,2137,2.0,3,27,210
145656290,7216 Cherry Beam Path,78744,2016,349000,9,2019,30.163463592529297,-97.72412872314452,2073,3.0,3,5,168
29341421,6328 Ayres Dr,78746,1990,1325000,6,2019,30.318077087402344,-97.81553649902344,4142,4.0,4,31,319
29375949,9300 Springwood Dr,78750,1972,550000,2,2019,30.439964294433604,-97.79568481445312,2581,2.0,4,49,213
145655859,15313 Knighten Ln,78725,2016,217500,8,2019,30.23905372619629,-97.5774383544922,1405,2.0,3,5,154
83819673,14020 Lake View Dr,78732,2006,865000,7,2020,30.41588020324707,-97.8929443359375,2895,3.0,3,15,298
29344936,1700 Canyon Edge Dr,78733,1994,565000,7,2018,30.33909606933593,-97.8620834350586,2648,3.0,4,27,213
29353950,5911 Long Ct,78730,1999,899900,7,2018,30.36214637756348,-97.79945373535156,3958,4.0,4,22,227
89651406,14101 Willow Tank Dr,78717,2009,219900,7,2018,30.49070739746093,-97.79296112060548,1730,3.0,3,12,127
2089992289,7720 Vista Mejor Dr,78744,2018,338900,7,2019,30.15946960449219,-97.71558380126952,2177,3.0,4,3,155
29368449,9702 Grand Oak Dr,78750,1985,545000,6,2020,30.420978546142567,-97.80438232421876,2338,2.0,3,36,233
89551588,2320 Elara Dr,78725,2013,161940,6,2019,30.21480178833008,-97.63815307617188,1452,2.0,3,8,111
80103408,5121 Bantom Woods Bnd,78724,2008,133000,4,2019,30.27275657653809,-97.63141632080078,1762,2.0,4,13,75
29368659,7105 Mountain Trl,78732,1991,549500,4,2020,30.41935539245605,-97.88487243652344,2162,3.0,3,30,254
83828934,1701 Chalk Rock Cv,78735,2007,885000,7,2019,30.296897888183604,-97.8670654296875,3436,3.0,4,14,257
58298947,6906 Agave Cv,78750,1984,798500,8,2020,30.37572479248047,-97.80010986328124,2927,4.0,4,37,272
58265948,11511 Brandon Parke Trl,78750,2002,400000,3,2018,30.45035743713379,-97.81635284423828,3254,3.0,5,19,122
89548573,2412 Kale Dr,78725,2009,217000,6,2018,30.21393394470215,-97.63741302490234,1776,3.0,5,12,122
83123896,13212 Coleto Creek Trl,78732,2007,700000,7,2018,30.369483947753903,-97.90807342529295,4952,4.0,4,14,141
64750934,1102 Lipan Trl,78733,2020,849900,3,2020,30.33656883239746,-97.8708267211914,1850,2.0,3,1,459
29355947,5505 Lakemoore Dr,78731,1962,535000,7,2019,30.365068435668945,-97.7858657836914,1707,2.0,3,59,313
29368658,7011 Mountain Trl,78732,1987,450000,5,2018,30.41880989074707,-97.8852996826172,2667,3.0,3,34,168
58265946,11512 Brandon Parke Trl,78750,2002,480000,10,2018,30.45078468322754,-97.81719207763672,3282,3.0,4,19,146
241938280,7205 Garnet Mill Ln,78744,2016,437500,11,2018,30.16134452819824,-97.7205581665039,2275,3.0,4,5,192
70330433,1108 Marly Way,78733,2020,625000,9,2020,30.33235740661621,-97.85832214355467,4941,0.0,5,1,126
29396905,5721 Alsace Trl,78724,1980,225000,3,2019,30.28890419006348,-97.64698028564452,1320,2.0,3,41,170
29361022,7604 Crossmeadow Dr,78750,1968,849500,12,2020,30.37772750854492,-97.78658294677734,2667,3.0,4,53,318
29376446,10600 Beckwood Dr,78726,1991,549900,11,2020,30.440948486328125,-97.8259048461914,2829,3.0,4,30,194
2080460279,7001 Garnet Mill Ln,78744,2017,399900,4,2020,30.16262626647949,-97.7193603515625,2519,3.0,3,4,158
80093390,533 Santaluz Path,78732,2012,825000,7,2019,30.3413028717041,-97.91954040527344,4219,6.0,4,9,195
29343408,3505 Native Dancer Cv,78746,1984,799000,4,2019,30.33099365234375,-97.80457305908205,3693,4.0,4,37,216
63835353,14921 Arizona Oak Ln,78724,2003,119900,9,2018,30.25202560424805,-97.58260345458984,1650,2.0,3,18,72
29396904,5717 Alsace Trl,78724,1980,159000,3,2019,30.28885841369629,-97.6471176147461,939,1.0,2,41,169
121719897,14300 Tyburn Trl,78717,2015,550000,11,2020,30.49062728881836,-97.78954315185548,3021,3.0,4,6,182
29351445,5626 Parade Rdg,78731,1985,550000,3,2019,30.35277366638184,-97.7920913696289,2474,3.0,3,36,222
29368642,7921 Davis Mountain Pass,78726,2004,564900,11,2020,30.42227935791016,-97.86302947998048,3422,4.0,4,17,165
29370446,10202 Lockleven Cv,78750,1984,525000,8,2019,30.422138214111328,-97.79623413085938,2567,4.0,4,37,204
70352485,12801 Wooded Lake Ct,78732,2007,715000,2,2018,30.35432243347168,-97.9112777709961,4060,5.0,4,14,176
29344931,2104 Island Wood Rd,78733,1985,3175000,7,2018,30.337703704833984,-97.84771728515624,4919,5.0,4,36,645
29459853,4604 Sojourner St,78725,1987,160000,12,2018,30.24517250061035,-97.58602142333984,1419,2.0,3,34,112
89663390,11109 Persimmon Gap Dr,78717,2008,315000,5,2018,30.49170684814453,-97.79071807861328,2234,3.0,3,13,141
145654553,1600 Caballo Blanco Rd,78725,2017,285000,11,2020,30.221006393432614,-97.63418579101562,1491,2.0,3,4,191
29341408,2000 Canonero Dr,78746,1994,1295000,10,2020,30.319255828857425,-97.81330871582033,4700,5.0,5,27,275
29376445,10602 Beckwood Dr,78726,1988,620000,11,2020,30.441150665283203,-97.82589721679688,2710,4.0,4,33,228
29373139,13545 Bullick Hollow Rd,78726,1975,598000,4,2018,30.43374061584473,-97.87350463867188,1656,2.0,2,46,361
83124879,216 Mediterra Point,78732,2008,495000,3,2018,30.3430233001709,-97.9109878540039,2717,3.0,4,13,182
70336928,2024 Wimberly Ln,78735,2005,1100000,12,2019,30.29387664794922,-97.8753662109375,4615,4.0,4,16,238
70338352,14920 Truman Oak Cv,78724,2013,215000,11,2018,30.248918533325195,-97.58234405517578,1749,2.0,4,8,122
88014884,11404 Fletcher Hall Ln,78717,2003,379800,7,2020,30.498477935791016,-97.79045867919922,1970,3.0,3,18,192
29351440,5614 Parade Rdg,78731,1995,399000,11,2018,30.35316467285156,-97.79170989990234,1644,2.0,3,26,242
29370832,8113 Davis Mountain Pass,78726,1989,540000,12,2020,30.42353630065918,-97.85972595214844,2871,3.0,4,32,188
29368445,9710 Grand Oak Dr,78750,1985,475000,6,2018,30.42145347595215,-97.8054656982422,3114,3.0,4,36,152
125158378,1103 Merlene Dr,78732,2015,689000,10,2019,30.33176612854004,-97.92328643798828,3393,4.0,4,6,203
70338351,14900 Truman Oak Cv,78724,2013,207500,4,2020,30.24901962280273,-97.5832748413086,1550,3.0,4,8,133
29342428,9803 Westward Dr,78733,1979,399000,4,2018,30.32862091064453,-97.87297821044922,1848,2.0,3,42,215
125792770,4912 Bonneville Bnd,78744,2015,389900,12,2019,30.17824745178223,-97.69378662109376,2953,3.0,4,6,132
29355939,5701 Lakemoore Dr,78731,1960,685000,6,2019,30.364503860473643,-97.78728485107422,1600,0.0,0,61,428
29343407,3503 Native Dancer Cv,78746,1983,975000,9,2020,30.330684661865234,-97.80477905273438,4269,5.0,4,38,228
88013884,11125 Dodge Cattle Dr,78717,2005,325000,10,2018,30.502241134643555,-97.7890853881836,2256,3.0,3,16,144
29368633,8101 Davis Mountain Pass,78726,1995,280000,8,2019,30.42263412475586,-97.86044311523438,2415,2.0,4,26,115
29374944,11117 Calavar Dr,78726,1993,480000,6,2020,30.435869216918945,-97.82595825195312,2455,3.0,5,28,195
83824877,13505 Coleto Creek Trl,78732,2006,749900,4,2018,30.37175750732422,-97.90902709960938,4589,5.0,4,15,163
249891260,7925 Beacon Knob Way,78744,2018,405000,9,2020,30.157695770263672,-97.71268463134766,2766,4.0,4,3,146
29344906,3100 Smoky Rdg,78730,1986,750000,5,2019,30.337337493896484,-97.82333374023438,3009,4.0,4,35,249
29351438,5608 Parade Rdg,78731,1995,409000,8,2019,30.35307693481445,-97.79139709472656,1456,2.0,2,26,280
29342427,9803 Timber Ridge Pass,78733,1985,457000,5,2019,30.32834815979004,-97.8731689453125,2094,3.0,3,36,218
29368632,8023 Davis Mountain Pass,78726,1992,265000,9,2020,30.42250633239746,-97.86056518554688,2051,2.0,3,29,129
29396897,5715 Sendero Hills Pkwy,78724,2004,205000,2,2018,30.28982925415039,-97.64745330810548,1200,2.0,3,17,170
29372944,10202 Pickfair Dr,78750,1999,622500,7,2020,30.428726196289062,-97.81062316894533,3962,4.0,4,22,157
83124877,208 Mediterra Point,78732,2008,425000,3,2019,30.34336280822754,-97.91098022460938,3323,3.0,4,13,127
63837777,3408 Crownover St,78725,2004,175000,8,2020,30.23153114318848,-97.5876693725586,1278,2.0,3,17,136
29461349,14506 Highsmith St,78725,1998,175000,10,2018,30.23805046081543,-97.58654022216795,1662,2.0,3,23,105
70336926,2000 Wimberly Ln,78735,2011,1095000,9,2018,30.293949127197266,-97.87610626220705,3983,4.0,4,10,274
58298435,6106 Gardenridge Holw,78750,1980,350000,6,2018,30.37151336669922,-97.7883071899414,1799,2.0,3,41,194
29368631,8021 Davis Mountain Pass,78726,1993,389900,5,2018,30.42238044738769,-97.86068725585938,2761,3.0,3,28,141
111373376,12313 Mediterra Pl,78732,2011,575000,5,2020,30.34079170227051,-97.91032409667967,2972,4.0,4,10,193
29376441,10607 Marbury Ct,78726,1991,510000,7,2020,30.441387176513672,-97.82626342773438,2580,2.0,4,30,197
145656010,11700 Saddle Rock Dr,78725,2017,255000,6,2019,30.22078895568848,-97.63388061523438,1496,2.0,3,4,170
29342426,9711 Timber Ridge Pass,78733,1984,420000,7,2020,30.32803726196289,-97.87335968017578,1499,2.0,3,37,280
29351434,5607 Courtyard Dr,78731,1991,650000,5,2019,30.353260040283203,-97.79042053222656,2519,3.0,3,30,258
251030758,5504 Gooding Dr,78744,2017,350000,10,2020,30.17500305175781,-97.6939926147461,2360,3.0,3,4,148
29368608,8001 Weldon Springs Ct,78726,1993,474500,10,2019,30.419288635253903,-97.8603973388672,4263,5.0,4,28,111
125792898,2508 Arion Cir,78730,2015,1325000,12,2020,30.33440589904785,-97.82910919189452,3895,4.0,4,6,340
83827393,9012 Southwick Dr,78724,2012,205000,5,2018,30.279062271118164,-97.62841033935548,1221,2.0,3,9,167
89551502,2416 Kale Dr,78725,2010,215000,7,2019,30.21377182006836,-97.63745880126952,1420,2.0,3,11,151
29374438,9906 Richelieu Rd,78750,1975,623000,6,2018,30.43627548217773,-97.80500030517578,2904,4.0,4,46,214
29342422,9802 Westward Dr,78733,1978,420000,11,2018,30.32906723022461,-97.87272644042967,1406,2.0,3,43,298
70331933,5525 City Park Rd APT 6,78730,2006,1400000,3,2020,30.36246490478516,-97.8138656616211,4237,4.0,4,15,330
29368601,12407 Waterton Parke Cv,78726,1989,242200,1,2020,30.42037010192871,-97.86131286621094,3165,3.0,5,32,76
80104872,12701 Tierra Grande Trl,78732,2008,395000,3,2018,30.34372329711914,-97.91596221923828,2045,2.0,3,13,193
58298431,6004 Gardenridge Holw,78750,1981,325000,4,2019,30.371234893798828,-97.78775787353516,1359,2.0,2,40,239
144176918,2403 Saratoga Dr,78733,1962,485000,4,2019,30.348594665527344,-97.86572265625,1780,3.0,3,59,272
29368594,12500 Mcloughlin Point,78726,1993,479900,6,2019,30.42136383056641,-97.86011505126952,3328,4.0,5,28,144
29375933,9304 Cedar Forest Dr,78750,1978,710000,11,2019,30.43993759155273,-97.7968292236328,3451,3.0,4,43,205
29357371,2205 Big Horn Dr,78734,1988,1100000,7,2018,30.372085571289062,-97.91548919677734,3020,4.0,5,33,364
29344897,3219 Smoky Rdg,78730,1981,774000,7,2018,30.337196350097656,-97.82068634033205,2812,3.0,3,40,275
70336913,1925 Wimberly Ln,78735,2005,899000,2,2019,30.293842315673828,-97.87725067138672,3294,3.0,4,16,272
64505930,6730 Cuesta Trl #5,78730,2002,1125000,4,2020,30.38124084472656,-97.81139373779295,3764,4.0,3,19,298
64737390,5620 Toscana Ave,78724,2006,269990,10,2018,30.287628173828125,-97.64517974853516,1511,3.0,3,15,178
88019366,10905 Dodge Cattle Dr,78717,2005,384900,8,2020,30.503122329711925,-97.7863998413086,1884,3.0,3,16,204
29374432,9903 Brandywine Cir,78750,1976,619900,7,2020,30.43653678894043,-97.80355834960938,2526,3.0,3,45,245
29368593,7949 Castle Peake Trl,78726,2000,410000,2,2018,30.422962188720703,-97.86251068115234,3274,4.0,4,21,125
249891254,7312 Van Ness St,78744,2017,320000,6,2020,30.15859031677246,-97.71491241455078,1754,2.0,3,4,182
29357369,2201 Big Horn Dr,78734,1983,1595000,7,2018,30.37163543701172,-97.91547393798828,2944,3.0,3,38,541
120898908,12301 Labrador Bay Ct,78732,2012,595000,8,2018,30.344465255737305,-97.90643310546876,3029,4.0,4,9,196
79981846,4603 Halliday Ave,78725,2009,209000,5,2020,30.24086570739746,-97.57785034179688,1236,2.0,4,12,169
29376431,10614 Marbury Ct,78726,1990,445000,4,2018,30.44204330444336,-97.82595825195312,3346,4.0,5,31,132
29343397,6007 Carry Back Ln,78746,1984,1215000,5,2018,30.33315849304199,-97.80496215820312,4700,6.0,5,37,258
29358974,6902 Rusty Fig Dr,78750,1982,609995,12,2019,30.37464714050293,-97.79686737060548,2728,3.0,4,39,223
111371886,9413 China Rose Dr,78724,2014,240000,10,2018,30.278547286987305,-97.62421417236328,2491,3.0,5,7,96
29368581,8012 Davis Mountain Pass,78726,1993,475000,6,2020,30.422569274902344,-97.86126708984376,2495,2.0,4,28,190
83124867,11912 Montclair Bnd,78732,2008,574900,11,2019,30.34182167053223,-97.91043853759766,3358,4.0,4,13,171
70992361,15308 Staked Plains Loop,78717,2006,212500,6,2020,30.497051239013672,-97.79515075683594,1985,2.5,3,15,107
80104386,9024 Sun Shower Bnd,78724,2007,240000,4,2018,30.276824951171875,-97.63174438476562,1761,2.0,4,14,136
63835340,15120 Arizona Oak Ln,78724,2003,175000,8,2018,30.25141143798828,-97.58064270019533,1326,2.0,3,18,131
29357366,2103 Big Horn Dr,78734,2013,1775000,8,2019,30.37078857421875,-97.91522979736328,3700,4.0,5,8,479
29372930,10304 Holme Lacey Ln,78750,1984,379950,2,2020,30.430532455444336,-97.81375122070312,2846,3.0,4,37,133
29368548,8141 Tahoe Parke Cir,78726,1999,549900,6,2019,30.421504974365234,-97.85586547851562,3884,4.0,5,22,141
67415405,10046 Circleview Dr,78733,1987,775000,7,2018,30.29961585998535,-97.89527893066406,3076,3.0,4,34,251
29353930,6300 Sprucewood Cv,78731,1985,399000,5,2018,30.35880279541016,-97.7865982055664,2068,2.0,3,36,192
88019360,15529 Staked Plains Loop,78717,2007,379000,5,2019,30.49406623840332,-97.7969207763672,2708,3.0,4,14,139
29459839,4701 Sojourner St,78725,1989,221000,6,2020,30.245859146118164,-97.58499145507812,1895,3.0,4,32,116
29363429,8009 High Hollow Dr,78750,1996,650000,7,2019,30.39308738708496,-97.8046646118164,2898,3.0,3,25,224
80104364,900 Santaluz Path,78732,2011,681900,4,2018,30.34135055541992,-97.91712188720705,4597,5.0,4,10,148
249891249,7305 Coit Rd,78744,2017,390000,12,2020,30.158916473388672,-97.71544647216795,1916,2.0,3,4,203
29368546,12205 Waterton Parke Cir,78726,1999,475000,11,2020,30.421497344970703,-97.85620880126952,2538,2.0,3,22,187
63835337,15105 Stave Oak Ln,78724,2003,219900,9,2019,30.25190353393555,-97.58092498779295,1952,3.0,4,18,112
29566857,12310 Bent Cedar Cv,78750,1980,175000,9,2018,30.4632625579834,-97.81148529052734,1723,2.0,3,41,101
111372714,412 Summer Alcove Way,78732,2012,959000,1,2021,30.34095573425293,-97.91325378417967,4559,4.0,5,9,210
29376426,11307 Nutwood Cv,78726,1989,489000,1,2020,30.44259262084961,-97.82620239257812,2635,4.0,5,32,185
29363428,8005 High Hollow Dr,78750,1996,765000,8,2020,30.39285659790039,-97.80449676513672,3574,4.0,4,25,214
29342404,110 S Lake Hills Dr,78733,1979,325000,6,2019,30.32772254943848,-97.87614440917967,2110,3.0,3,42,154
29368532,12201 Klondike Rush Point,78726,1996,419900,8,2018,30.41982650756836,-97.85623168945312,2622,3.0,4,25,160
29459837,4723 Castleman Dr,78725,1996,52500,12,2020,30.246564865112305,-97.58329010009766,1405,2.0,3,25,37
58298927,7205 Waldon Dr APT 209,78750,1983,258000,4,2018,30.37234878540039,-97.78695678710938,1096,2.0,2,38,235
29396879,6013 Seville Dr,78724,2017,412900,2,2020,30.291004180908203,-97.64351654052734,2837,3.0,4,4,145
29368531,12203 Klondike Rush Point,78726,1990,550000,3,2020,30.41954040527344,-97.85643005371094,3379,4.0,4,31,162
29343391,3515 Needles Dr,78746,1983,1350000,7,2019,30.332538604736328,-97.80589294433594,4840,4.0,4,38,278
70352403,516 Horseback Holw,78732,2010,725000,2,2018,30.348796844482425,-97.90283966064452,4150,4.0,5,11,174
29375925,9305 Spring Hollow Dr,78750,1976,768000,7,2020,30.44138145446777,-97.7961654663086,2826,3.0,4,45,271
80104481,233 Santaluz Ln,78732,2008,865000,10,2019,30.34349822998047,-97.91891479492188,4549,6.0,5,13,190
2079519189,3502 Batson Dr,78725,2020,263990,10,2020,30.23150062561035,-97.5855484008789,1863,2.0,4,1,141
29363427,8001 High Hollow Dr,78750,1995,550000,8,2018,30.392656326293945,-97.80437469482422,2489,3.0,4,26,220
70992349,11513 Gold Cave Dr,78717,2007,339900,8,2019,30.49637031555176,-97.79571533203124,2030,3.0,3,14,167
249891244,7116 Lombard Ln,78744,2017,439900,12,2020,30.159822463989247,-97.71561431884766,2942,4.0,4,4,149
29341389,2105 Canonero Dr,78746,1991,1149000,8,2019,30.320859909057614,-97.8125991821289,3724,5.0,5,30,308
90240400,108 Thistle Ct,78733,2005,1095000,6,2018,30.33088302612305,-97.87989044189452,4616,4.0,5,16,237
29395366,5321 King Henry Dr,78724,1984,299000,12,2020,30.289735794067383,-97.66132354736328,1531,3.0,4,37,195
88023347,14605 Staked Plains Loop,78717,2004,470000,6,2020,30.4970703125,-97.79075622558594,2792,3.0,3,17,168
251034742,7908 Donnelley Dr,78744,2019,412206,12,2019,30.151573181152344,-97.71981811523438,2502,3.0,3,2,164
58298426,6005 Gardenridge Holw,78750,1978,424900,9,2019,30.37074089050293,-97.78797149658205,1747,2.0,3,43,243
29348387,4819 N Capital Of Tx Hy #1,78746,1997,3495000,5,2020,30.34600830078125,-97.79971313476562,4496,4.0,3,24,777
29368530,12205 Klondike Rush Point,78726,1992,384900,6,2018,30.41957855224609,-97.85676574707033,2484,3.0,4,29,154
111372365,9220 China Rose Dr,78724,2014,239900,9,2018,30.27958106994629,-97.62531280517578,1650,2.0,3,7,145
111973229,14505 Amy Francis St,78725,2001,189900,10,2019,30.23169708251953,-97.59081268310548,1178,2.0,3,20,161
70992346,15316 Staked Plains Loop,78717,2006,375000,3,2020,30.49666786193848,-97.79542541503906,1985,3.0,3,15,188
89550899,300 Horseback Holw,78732,2010,649900,3,2020,30.349687576293945,-97.90381622314452,3058,3.0,4,11,212
29344884,3505 Robbins Rd,78730,1999,3250000,8,2018,30.339374542236328,-97.81781005859376,4800,5.0,3,22,677
29374423,11115 Orsini Pl,78750,1976,849000,4,2020,30.43739891052246,-97.80229949951172,3205,3.0,4,45,264
29368568,8037 Tahoe Parke Cir,78726,1999,559900,12,2020,30.42145919799805,-97.85759735107422,3522,5.0,5,22,158
241931861,6029 Florencia Ln,78724,2018,428900,8,2018,30.291261672973643,-97.64215850830078,2470,3.0,3,3,173
121657728,711 Yabers Ct,78725,2013,194973,6,2018,30.236879348754886,-97.57853698730467,1426,2.0,3,8,136
29358926,6807 Falcata Cv,78750,1982,915000,11,2020,30.37439155578613,-97.7957000732422,3078,3.0,4,39,297
249891240,7704 Vista Mejor Dr,78744,2017,375000,6,2020,30.15945625305176,-97.71625518798828,1976,2.0,3,4,189
55299492,13800 Madrone Mountain Way,78737,2001,990000,12,2019,30.17957305908203,-97.9572982788086,4417,6.0,4,20,224
80104336,12728 Tierra Grande Trl,78732,2009,365000,7,2019,30.344783782958984,-97.91585540771484,1947,2.0,3,12,187
70352400,606 Horseback Holw,78732,2011,590000,6,2018,30.34939002990723,-97.90281677246094,3335,4.0,4,10,176
29341382,1913 Canonero Dr,78746,1989,699000,3,2018,30.31919288635254,-97.81237030029295,3649,5.0,4,32,191
29374422,11111 Orsini Pl,78750,1979,399500,5,2020,30.437091827392567,-97.80245208740234,2537,3.0,4,42,157
70992345,11616 Mcdows Hole Ln,78717,2007,289000,4,2018,30.496437072753903,-97.79521942138672,1815,3.0,3,14,159
83818357,5201 Park At Woodlands Dr,78724,2007,257900,7,2020,30.274185180664062,-97.63250732421876,1347,2.0,3,14,191
29462725,3411 Peavy Dr,78725,2000,205000,5,2019,30.23242950439453,-97.58869171142578,1726,3.0,3,21,118
29351423,5503 Courtyard Dr,78731,1984,465900,3,2020,30.35234260559082,-97.79283142089844,2848,4.0,3,37,163
29461328,14508 Rumfeldt St,78725,1998,214900,6,2019,30.238656997680664,-97.58609008789062,1692,2.0,3,23,127
29340878,7805 Brightman Ln,78733,1999,1244000,4,2019,30.317249298095703,-97.84424591064452,3852,4.0,4,22,322
55299490,13420 Madrone Mountain Way,78737,2011,149900,10,2019,30.17897224426269,-97.95841217041016,3750,3.0,4,10,39
70352399,612 Horseback Holw,78732,2010,649500,7,2018,30.34956741333008,-97.90281677246094,4172,4.0,5,11,155
29395357,5303 King Henry Dr,78724,1975,250000,9,2019,30.28877258300781,-97.6601333618164,1116,2.0,4,46,224
29462724,3409 Peavy Dr,78725,2000,195000,10,2018,30.23230361938477,-97.58878326416016,1476,3.0,3,21,132
29372422,10711 Keystone Bnd,78750,1985,550000,7,2020,30.43033790588379,-97.79794311523438,2220,2.0,3,36,247
29340875,605 N Weston Ln,78733,1996,1290000,9,2018,30.31758117675781,-97.84160614013672,3652,4.0,4,25,353
29368517,8003 Caribou Parke Cv,78726,1988,425000,9,2019,30.41860771179199,-97.85771942138672,2949,3.0,4,33,144
83823333,13208 Coleto Creek Trl,78732,2007,810000,5,2018,30.36952209472656,-97.90782165527344,4326,6.0,5,14,187
145657233,7208 Brick Slope Path,78744,2015,349900,4,2020,30.16329002380371,-97.72315216064452,1844,3.0,3,6,189
55299488,13809 Madrone Mountain Way,78737,2001,719900,6,2020,30.178998947143555,-97.95619201660156,3371,4.0,4,20,213
70992340,11520 Mcdows Hole Ln,78717,2006,209495,7,2020,30.496109008789062,-97.7945327758789,2126,3.0,3,15,98
70345723,3307 Etheredge Dr,78725,2005,214900,5,2020,30.23193168640137,-97.59159088134766,1569,3.0,3,16,136
70336899,2308 Swirling Wind Cv,78735,2009,1045000,10,2020,30.295921325683604,-97.87673950195312,3883,4.0,5,12,269
83833421,9308 Prince Charles,78730,2006,1449000,5,2019,30.360414505004886,-97.84178924560548,4808,4.0,4,15,301
70335832,12725 Rush Creek Ln,78732,2005,475000,5,2018,30.35381507873535,-97.90779876708984,2746,3.0,4,16,172
29370422,9105 Skye Cv,78750,1989,612000,2,2018,30.42526817321777,-97.7972640991211,3033,3.0,4,32,201
125750185,5930 Bold Ruler Way,78746,2018,3950000,12,2020,30.321430206298828,-97.81201934814452,4200,5.0,4,3,940
70992341,11600 Mcdows Hole Ln,78717,2007,340000,9,2019,30.496198654174805,-97.7946548461914,2015,3.0,3,14,168
145656729,8024 Annalise Dr,78744,2016,328000,9,2020,30.17609214782715,-97.69621276855467,1891,3.0,3,5,173
2077718915,7000 Cut Plains Trl,78726,2016,525000,11,2020,30.39945983886719,-97.8441925048828,1953,3.0,3,5,268
70348219,1213 Red Oak Valley Ct,78732,2006,485000,12,2020,30.349781036376964,-97.89220428466795,2255,2.0,3,15,215
88023921,11125 Sandstone Trl,78750,2004,452000,9,2019,30.452259063720703,-97.81585693359376,2825,3.0,4,17,160
251033728,7812 Donnelley Dr,78744,2019,429900,12,2019,30.15183067321777,-97.7192153930664,2570,3.0,4,2,167
70992334,14312 Staked Plains Loop,78717,2007,199000,3,2018,30.49550628662109,-97.79438018798828,1626,2.0,3,14,122
80093353,9021 Quick Stream Dr,78724,2007,225000,4,2018,30.27707481384277,-97.63145446777344,1442,2.0,3,14,156
29459824,4719 Fallenash Dr,78725,1996,156485,11,2019,30.24663543701172,-97.5843734741211,1898,3.0,3,25,82
29346897,1700 Foggy Glen Cv,78733,1989,612000,6,2019,30.343366622924805,-97.87294006347656,3675,4.0,5,32,166
29340866,205 N Weston Ln,78733,1994,1350000,3,2019,30.31435585021973,-97.84210968017578,4016,4.0,4,27,336
64543920,10734 Centennial Trl,78726,1957,730000,2,2020,30.44809341430664,-97.8195571899414,2878,3.0,4,64,253
202152984,176 Stoney Point Rd,78737,2015,519900,3,2020,30.17479705810547,-97.99333953857422,3181,4.0,4,6,163
70992331,14308 Homestead Village Cir,78717,2007,409000,3,2019,30.495906829833984,-97.79511260986328,2868,4.0,4,14,142
29368502,8007 Weldon Springs Ct,78726,1989,329000,9,2020,30.41972732543945,-97.85973358154295,3071,4.0,4,32,107
111372345,9404 China Rose Dr,78724,2014,298500,10,2020,30.279163360595703,-97.62425231933594,1891,2.0,3,7,157
29351415,5500 N Scout Island Cir,78731,1999,1249000,10,2018,30.356645584106445,-97.78723907470705,3427,4.0,3,22,364
29342397,104 N Lake Hills Dr,78733,1970,585900,10,2018,30.329530715942383,-97.87481689453124,1686,2.0,4,51,347
241938219,7108 Sienna Rouge Path,78744,2017,355000,4,2019,30.164966583251964,-97.72420501708984,2289,3.0,4,4,155
29344861,6702 Troll Hvn,78746,1985,1290000,7,2020,30.33665657043457,-97.81659698486328,2500,3.0,3,36,516
29368420,9204 Rolling Oaks Trl,78750,1983,337000,11,2018,30.421937942504886,-97.80211639404295,2269,3.0,4,38,148
29368500,8026 Tahoe Parke Cir,78726,1998,519900,7,2019,30.420734405517567,-97.8574447631836,2698,3.0,4,23,192
80084981,147 Winecup Way,78737,2006,390000,9,2020,30.17169189453125,-97.99765014648438,2739,3.0,4,15,142
70326844,6220 Seville Dr,78724,2007,325000,3,2020,30.29350280761719,-97.6422882080078,2192,3.0,3,14,148
29351414,5410 N Scout Island Cir,78731,1999,1500000,6,2019,30.356599807739247,-97.78700256347656,3994,4.0,4,22,375
70336895,2305 Swirling Wind Cv,78735,2008,1295000,11,2020,30.296239852905284,-97.8759536743164,4183,5.0,5,13,309
70345711,3103 Etheredge Dr,78725,2006,200000,7,2018,30.23060607910156,-97.59249877929688,1986,3.0,5,15,100
70992322,14408 Homestead Village Cir,78717,2007,364900,6,2019,30.49468040466309,-97.7949447631836,2471,2.0,3,14,147
145658498,6037 Seville Dr,78724,2016,410000,8,2018,30.291584014892567,-97.6429672241211,2526,4.0,3,5,162
145655717,5316 Ingersoll Ln,78744,2015,305000,7,2019,30.176494598388672,-97.69475555419922,1772,3.0,3,6,172
29360913,6609 Robbie Creek Cv,78750,1984,449000,5,2018,30.378183364868164,-97.79055786132812,2294,3.0,3,37,195
64696895,9119 Spinning Leaf Cv,78735,2005,1200000,4,2019,30.293710708618164,-97.87338256835938,3533,4.0,4,16,339
185217321,11521 Mcdows Hole Ln,78717,2006,315000,7,2018,30.49648284912109,-97.79410552978516,1837,2.0,3,15,171
70345708,3112 Etheredge Dr,78725,2010,127926,5,2018,30.231237411499023,-97.59272003173828,1378,2.0,3,11,92
29377417,10510 Weller Dr,78750,1983,755000,8,2020,30.44447135925293,-97.81077575683594,3149,4.0,5,38,239
83124822,400 Emerald Ridge Dr,78732,2011,589000,9,2020,30.340538024902344,-97.90909576416016,3818,4.0,4,10,154
84138980,160 Daisy Path,78737,2006,495000,11,2019,30.174644470214844,-98.00067138671876,3854,4.0,4,15,128
83824836,5313 Park At Woodlands Dr,78724,2007,289900,7,2019,30.276050567626964,-97.6313705444336,2573,3.0,4,14,112
2088560215,7104 Sentry Path,78744,2018,385990,10,2018,30.16153907775879,-97.71651458740234,2457,3.0,4,3,157
29363410,8012 Jester Blvd,78750,1993,750000,7,2020,30.393129348754886,-97.80248260498048,2844,3.0,3,28,263
2099325819,13717 Wiregrass Way,78717,2015,514900,10,2020,30.48480987548828,-97.78945922851562,3051,4.0,4,6,168
70352394,1221 Red Oak Valley Ct,78732,2006,600000,7,2019,30.35012435913086,-97.89225769042967,2538,3.0,3,15,236
29462708,3207 Peavy Dr,78725,2000,180000,8,2018,30.23038482666016,-97.59002685546876,1467,3.0,3,21,122
29344853,6637 Dogwood Creek Dr,78746,1997,847000,8,2018,30.338266372680664,-97.80984497070312,3092,4.0,4,24,273
83815821,12304 Edenvale Path,78732,2009,525000,1,2020,30.34259605407715,-97.90824127197266,2958,3.0,5,12,177
64640832,5532 Toscana Ave,78724,2006,288500,10,2018,30.28725242614746,-97.64602661132812,1339,2.0,3,15,215
29461309,4203 Boatwright Cv,78725,1986,204400,2,2020,30.24096488952637,-97.58624267578124,1539,2.0,4,35,132
55299479,13525 Madrone Mountain Way,78737,2005,595000,10,2018,30.1799430847168,-97.95948791503906,3062,4.0,4,16,194
29375915,9421 Spring Hollow Dr,78750,1977,695000,8,2019,30.43884086608887,-97.79732513427734,2611,3.0,5,44,266
70336894,2309 Swirling Wind Cv,78735,2010,1300000,7,2020,30.29595375061035,-97.8759765625,4129,5.0,5,11,314
29344851,3705 Dogwood Creek Cv,78746,1996,1275000,8,2019,30.33783721923828,-97.8102798461914,3385,4.0,4,25,376
29351909,9205 Prince William,78730,1996,999900,5,2020,30.36137962341309,-97.83877563476562,3277,5.0,4,25,305
29439010,1212 Weatherford Dr,78753,1988,315000,11,2020,30.4066104888916,-97.64604949951172,2257,3.0,3,33,139
111371325,9120 China Rose Dr,78724,2014,240000,7,2019,30.27993011474609,-97.62618255615234,1710,2.0,4,7,140
28594363,16499 Westview Trl,78737,1994,415000,12,2020,30.14106750488281,-97.96988677978516,2234,2.0,3,27,185
29461308,4201 Boatwright Cv,78725,1986,219500,8,2019,30.24083137512207,-97.5863265991211,1854,3.0,3,35,118
124843201,5508 Gooding Dr,78744,2016,350000,5,2020,30.174867630004886,-97.69400787353516,1789,3.0,3,5,195
60138195,14407 Sandifer St,78725,2002,219900,5,2019,30.236913681030284,-97.58863067626952,1890,2.0,3,19,116
111969317,13917 Turkey Hollow Trl,78717,2012,420000,7,2020,30.48973846435547,-97.79603576660156,2654,3.0,4,9,158
29370415,9101 Caira Cv,78750,1985,449000,5,2018,30.426225662231445,-97.79673767089844,1952,2.0,4,36,230
120895893,11425 Shoreview Cv,78732,2012,749900,2,2018,30.34696960449219,-97.89127349853516,4318,4.0,4,9,173
80094819,430 Santaluz Path,78732,2010,624900,3,2018,30.34322166442871,-97.92060089111328,4455,5.0,5,11,140
111372822,9504 China Rose Dr,78724,2014,244000,1,2020,30.27876281738281,-97.62339782714844,1710,2.0,3,7,142
29471186,10801 Moore Rd,78719,2012,250000,11,2018,30.127161026000977,-97.6809310913086,1680,2.0,3,9,148
29459807,4716 Castleman Dr,78725,1986,185500,3,2019,30.24645233154297,-97.5837860107422,1493,2.0,3,35,124
119620477,1545 Cool Spring Way,78737,2017,569000,10,2020,30.165699005126964,-97.99436950683594,3468,3.0,4,4,164
29372913,10202 Echoridge Dr,78750,1996,665000,12,2019,30.429946899414062,-97.81389617919922,3323,4.0,4,25,200
70992316,14216 Rountree Ranch Ln,78717,2007,375000,5,2020,30.49448776245117,-97.79454040527344,2236,3.0,4,14,167
58297966,2800 Waymaker Way UNIT 18,78746,1999,460000,2,2019,30.325796127319336,-97.80976104736328,2913,2.0,4,22,157
29351905,8900 Westminster Glen Ave,78730,2000,1075000,9,2020,30.361438751220703,-97.83341217041016,4688,4.0,4,21,229
83817317,8821 Southwick Dr,78724,2012,214900,5,2020,30.280479431152344,-97.62955474853516,1203,2.0,3,9,178
70352389,1208 Red Oak Valley Ct,78732,2007,395000,11,2020,30.34956359863281,-97.8930892944336,1862,2.0,3,14,212
29372413,10706 Leafwood Ln,78750,1989,600000,8,2020,30.429636001586925,-97.79704284667967,3200,3.0,4,32,187
29344839,6636 Dogwood Creek Dr,78746,1997,1600000,9,2020,30.338045120239247,-97.80902862548828,4385,5.0,5,24,364
119620476,1847 Cool Spring Way,78737,2020,679000,9,2020,30.165834426879886,-97.99944305419922,3151,3.0,4,1,215
29462690,14516 James Vincent Dr,78725,2001,200000,4,2020,30.231037139892567,-97.5901336669922,1467,3.0,3,20,136
70992306,14309 Rountree Ranch Ln,78717,2006,295000,7,2019,30.49398422241211,-97.79370880126952,1694,2.0,3,15,174
29351902,8901 Westminster Glen Ave,78730,2000,1190000,7,2020,30.36055374145508,-97.83401489257812,3870,5.0,4,21,307
80106317,5116 Bantom Woods Bnd,78724,2008,225000,5,2018,30.272985458374023,-97.63204956054688,1704,2.0,3,13,132
29459805,4700 Sojourner St,78725,1987,200000,6,2018,30.246074676513672,-97.58544158935548,1815,3.0,4,34,110
29343832,10011 Lake Ridge Dr,78733,1962,490000,12,2020,30.33307838439941,-97.87464904785156,2081,2.0,4,59,235
29375911,9409 Cedar Crest Dr,78750,1977,594900,1,2019,30.442386627197266,-97.798095703125,3451,3.0,4,44,172
55299476,13425 Madrone Mountain Way,78737,2006,596900,4,2019,30.17802429199219,-97.9589614868164,3128,3.0,3,15,190
29470178,6809 Creedmoor Dr,78719,2019,130000,6,2020,30.160104751586925,-97.6904296875,2350,3.0,3,2,55
29464189,3117 Peavy Dr,78725,2000,122000,2,2020,30.22990226745605,-97.59033966064452,2035,3.0,3,21,59
29395310,6200 Parliament Dr,78724,1972,247000,11,2020,30.288488388061523,-97.66114044189452,1199,2.0,3,49,206
58298400,6905 Dogwood Holw,78750,1980,425000,4,2018,30.37119674682617,-97.79007720947266,1927,3.0,3,41,220
79981802,4604 Acers Ln,78725,2008,169000,5,2020,30.24202537536621,-97.57996368408205,928,2.0,3,13,182
29342388,9308 Stallion Dr,78733,1998,725000,5,2019,30.325780868530284,-97.86688232421876,2876,3.0,4,23,252
29375910,11809 Balcones Way,78750,2002,599999,6,2018,30.441814422607425,-97.79823303222656,2550,3.0,3,19,235
111372812,405 Summer Alcove Way,78732,2012,685000,6,2019,30.341270446777344,-97.91228485107422,4124,4.0,5,9,166
145658177,5408 Kara Dr,78744,2015,279000,12,2018,30.17625617980957,-97.69580841064452,1821,2.0,3,6,153
29464187,3113 Peavy Dr,78725,2001,179900,7,2018,30.22966194152832,-97.59049224853516,1748,3.0,3,20,102
29344833,6612 Dogwood Creek Dr,78746,1997,1375000,3,2020,30.33674621582031,-97.81046295166016,3711,5.0,4,24,370
83816303,5413 Park At Woodlands Dr,78724,2007,230000,3,2020,30.276567459106445,-97.6308135986328,1442,2.0,3,14,159
29353898,5604 Blueridge Ct,78731,1981,855000,7,2020,30.362150192260746,-97.78648376464844,3193,3.0,4,40,267
70336887,2409 Swirling Wind Cv,78735,2006,999000,11,2018,30.29440689086914,-97.8763427734375,4095,4.0,5,15,243
58300408,10660 Bramblecrest Dr,78726,1999,714900,3,2020,30.43845367431641,-97.81594848632812,4200,4.0,5,22,170
29361809,3005 Brass Buttons Trl,78734,1981,599750,12,2018,30.38127136230469,-97.9163818359375,2076,3.0,3,40,288
29343331,3511 Fawn Trl,78746,1984,515000,3,2019,30.3314208984375,-97.80094146728516,1616,2.0,2,37,318
58298397,6900 Dogwood Holw,78750,1978,459500,2,2020,30.371116638183604,-97.79056549072266,1904,2.0,3,43,241
89552800,4613 Credo Ln,78725,2010,192000,1,2019,30.23784828186035,-97.5713348388672,1432,3.0,3,11,134
29565906,12211 Old Stage Trl,78750,1976,339500,11,2020,30.45294952392578,-97.7983856201172,1398,2.0,3,45,242
29462679,14511 Cottingham Dr,78725,2000,238000,8,2020,30.232126235961925,-97.58999633789062,1737,2.0,3,21,137
121656827,2528 Ionian Cv,78730,2014,1250000,5,2019,30.3386344909668,-97.82909393310548,4323,4.0,4,7,289
202161475,137 Finnel Cv,78737,2012,774999,10,2020,30.16541290283203,-97.93881225585938,3809,4.0,5,9,203
29353897,5602 Blueridge Ct,78731,1963,649000,4,2019,30.362192153930664,-97.78605651855467,2160,2.0,3,58,300
29372406,10812 Wintergreen Hl,78750,1985,599900,7,2019,30.430856704711925,-97.7978744506836,2742,3.0,4,36,218
124149797,10816 Natches Trce,78717,2016,439000,12,2019,30.483285903930664,-97.78955841064452,1977,2.0,3,5,222
70345678,3215 Barksdale Dr,78725,2009,209798,2,2019,30.231969833374023,-97.5926742553711,1522,2.0,4,12,137
120896822,2702 Pearce Rd,78730,2013,750000,12,2018,30.33192443847656,-97.82577514648438,3004,4.0,3,8,249
29395301,6205 Parliament Dr,78724,1972,290000,10,2019,30.287872314453125,-97.6611099243164,1110,2.0,3,49,261
58298396,6902 Dogwood Holw,78750,1980,475000,10,2019,30.371265411376964,-97.79066467285156,1869,3.0,3,41,254
58300404,10680 Bramblecrest Dr,78726,2000,610000,6,2018,30.437429428100582,-97.81600952148438,4148,3.0,5,21,147
60136380,2100 Wood Acre Ln APT 6,78733,2001,475000,2,2019,30.34193229675293,-97.8542938232422,2287,3.0,3,20,207
111370793,12312 Mediterra Pl,78732,2011,539000,8,2019,30.341339111328125,-97.91004180908205,2968,4.0,5,10,181
80079467,268 Winecup Way,78737,2006,549900,6,2018,30.17312812805176,-97.99671173095705,4679,5.0,5,15,117
29396799,5402 Garden View Cv,78724,1987,409000,9,2020,30.29035568237305,-97.66019439697266,1867,3.0,3,34,219
29363396,8004 High Hollow Dr,78750,1996,755000,6,2020,30.39249038696289,-97.80493927001952,3029,3.0,4,25,249
251036659,8001 Bestride Bnd,78744,2019,429900,9,2019,30.15142250061035,-97.72044372558594,2433,3.0,4,2,176
29372402,10900 Wintergreen Hl,78750,1984,414995,7,2018,30.431798934936523,-97.7980728149414,2047,2.0,3,37,202
116080293,11320 Wyola Bnd,78717,2012,329000,6,2018,30.491535186767567,-97.79708862304688,1905,2.0,3,9,172
120898376,1412 Shoreview Cv,78732,2013,965000,7,2019,30.3453369140625,-97.89547729492188,4393,4.0,4,8,219
70345672,3203 Barksdale Dr,78725,2011,119900,8,2018,30.23139190673828,-97.5930404663086,2074,3.0,5,10,57
29344810,6700 Troll Hvn,78746,1974,1150000,7,2019,30.33647727966309,-97.81639099121094,1940,2.0,4,47,592
80107289,332 Santaluz Ln,78732,2009,725000,11,2018,30.34233283996582,-97.91957092285156,4416,4.0,5,12,164
29395299,6201 Parliament Dr,78724,1972,329500,7,2019,30.288148880004886,-97.66136169433594,1903,3.0,5,49,173
145655653,5213 Ingersoll Ln,78744,2015,299900,10,2018,30.17717933654785,-97.69424438476562,2075,3.0,4,6,144
29376401,10636 Bramblecrest Dr,78726,1998,439900,4,2020,30.43892478942871,-97.81719970703124,3756,4.0,4,23,117
83830871,501 Horseback Holw,78732,2006,945000,8,2020,30.34783935546875,-97.9024429321289,4313,4.0,5,15,219
145656091,4517 Fifnella Way,78725,2015,238000,5,2020,30.239734649658203,-97.5765380859375,1652,2.0,3,6,144
89548288,336 Palo Alto Way,78732,2008,349990,6,2019,30.3481502532959,-97.91316223144533,2705,4.0,4,13,129
29351394,5902 Inter Council Cv,78731,1995,725000,8,2018,30.35415267944336,-97.78614044189452,2893,3.0,4,26,250
29385797,4504 Aristocrat Dr,78725,1998,230000,4,2020,30.26312828063965,-97.6275405883789,1628,2.0,3,23,141
111961964,433 Wild Rose Dr,78737,2010,490000,9,2020,30.17000389099121,-97.98401641845705,2973,3.0,4,11,164
241933147,7213 Auburn Blaze Ln,78744,2016,465000,3,2020,30.16046142578125,-97.71991729736328,3105,3.0,5,5,149
120896481,12121 Labrador Bay Ct,78732,2012,675900,9,2020,30.34417724609375,-97.90538024902344,3563,4.0,4,9,189
29342304,1705 Manana St,78730,1978,2399000,11,2019,30.325294494628903,-97.83367156982422,3019,4.0,3,43,794
29358887,7204 Rusty Fig Dr,78750,1983,715000,7,2018,30.37691879272461,-97.79443359375,2922,3.0,3,38,244
241934796,7400 Annette Cv,78724,2017,575000,2,2020,30.28563499450684,-97.6453628540039,2801,3.0,4,4,205
88027789,14601 Staked Plains Loop,78717,2004,435000,6,2018,30.49679946899414,-97.79074096679688,3468,4.0,5,17,125
243293463,136 Angela Rose Ct,78737,2016,589000,7,2020,30.15267372131348,-97.93677520751952,3405,4.0,4,5,172
70345662,3204 Barksdale Dr,78725,2009,180000,12,2018,30.23171806335449,-97.5934600830078,1272,2.0,3,12,141
241930792,4607 Truth Way,78725,2016,213000,5,2020,30.23974609375,-97.57463836669922,1158,2.0,3,5,183
29372400,10904 Wintergreen Hl,78750,1985,549500,9,2018,30.4322566986084,-97.79816436767578,2774,2.0,3,36,198
70333788,12817 Rush Creek Ln,78732,2005,480000,5,2019,30.35470962524414,-97.90787506103516,2883,3.0,4,16,166
29351383,6002 Little Bull Cv,78731,1994,820000,12,2018,30.35559272766113,-97.78649139404295,3560,3.0,5,27,230
89550796,8908 Quick Stream Dr,78724,2014,245000,6,2019,30.27861213684082,-97.63153839111328,1704,2.0,3,7,143
111968786,13918 Turkey Hollow Trl,78717,2012,332900,6,2018,30.49013519287109,-97.79618072509766,1937,3.0,3,9,171
241933142,7113 Garnet Mill Ln,78744,2017,415000,9,2020,30.16157150268555,-97.72027587890624,2365,3.0,4,4,175
70323862,8709 Capehart Cv,78733,2005,1435000,11,2019,30.319379806518555,-97.85903930664062,4684,6.0,5,16,306
124837787,2504 Arion Cir,78730,2015,1495000,12,2020,30.33409309387207,-97.8290023803711,3933,4.0,4,6,380
29370399,10511 Scotland Well Dr,78750,1983,500000,8,2020,30.426025390625,-97.79615783691406,1831,2.0,3,38,273
70352281,13101 Zen Gardens Way,78732,2013,1695000,10,2020,30.34297752380371,-97.92283630371094,4783,5.0,5,8,354
64634789,5200 Heritage Village Dr,78724,2003,295000,5,2018,30.2871150970459,-97.65892791748048,1274,2.0,3,18,231
89651286,14304 Marathon Rd,78717,2008,295000,4,2018,30.493526458740234,-97.79266357421876,1844,2.0,3,13,159
122187957,380 Emma Loop,78737,2013,529444,2,2020,30.162221908569336,-97.94139862060548,3021,3.0,3,8,175
29462476,14505 James Vincent Dr,78725,1998,202000,7,2020,30.23107147216797,-97.5912094116211,1499,2.0,3,23,134
60136362,1303 Castile Rd,78733,1973,200000,7,2019,30.33907890319824,-97.8695297241211,952,1.0,1,48,210
2094867139,7221 Sienna Rouge Path,78744,2016,325000,4,2020,30.163000106811523,-97.71389770507812,2515,3.0,4,5,129
29336282,1800 Lakeshore Dr,78746,1991,2599000,9,2020,30.29851722717285,-97.7894515991211,2640,3.0,4,30,984
29370396,10505 Scotland Well Dr,78750,1984,399900,9,2020,30.42534446716309,-97.79606628417967,2000,2.0,4,37,199
83822780,13707 Montview Dr,78732,2008,570000,2,2020,30.382244110107425,-97.90928649902344,2835,4.0,4,13,201
121656881,9725 Solana Vista Loop #B,78750,2013,365000,3,2019,30.392269134521484,-97.8285903930664,1790,3.0,2,8,203
64842284,6209 Perlita Dr,78724,2004,228500,6,2019,30.29333877563477,-97.64290618896484,1450,3.0,3,17,157
2086373955,379 Stone River Dr,78737,2019,568900,5,2019,30.16576766967773,-97.99888610839844,3400,4.0,4,2,167
70345631,3410 Barksdale Dr,78725,2005,199900,11,2019,30.23336601257324,-97.59241485595705,1436,2.0,3,16,139
251034137,8309 Donnelley Dr,78744,2019,399990,3,2020,30.14910888671875,-97.72095489501952,2736,3.0,4,2,146
29368396,8504 Del Carmen Cv,78759,1993,819900,2,2018,30.4174861907959,-97.79251098632812,4079,5.0,5,28,201
114157955,324 Whispering Wind Way,78737,2011,399900,8,2019,30.16082572937012,-97.9983367919922,2835,4.0,4,10,141
29351381,5405 N Scout Island Cir,78731,1994,799999,1,2019,30.35588836669922,-97.78661346435548,3549,5.0,5,27,225
64578358,1100 Ogden Dr,78733,2003,645000,6,2018,30.332372665405284,-97.86319732666016,3186,4.0,4,18,202
125808623,815 Hatton Hill Ln,78725,2014,214900,9,2018,30.23623275756836,-97.58108520507812,1508,2.0,3,7,142
125887777,1406 W Lakeland Dr,78732,2018,575000,6,2019,30.33193778991699,-97.92899322509766,2758,4.0,4,3,208
119629454,186 Big Meadow Rd,78737,2017,499995,4,2020,30.16472053527832,-97.99425506591795,3150,3.0,5,4,158
29351880,4508 House Of Lancaster,78730,1999,769000,4,2018,30.361553192138672,-97.8381805419922,4087,4.0,4,22,188
125934135,5421 Ingersoll Ln,78744,2015,248500,7,2019,30.175518035888672,-97.69422912597656,1617,2.0,3,6,153
70992278,14308 Rountree Ranch Ln,78717,2006,334400,9,2019,30.49448776245117,-97.79380798339844,1995,3.0,3,15,167
29374395,9818 Mandeville Cir,78750,1976,699000,2,2018,30.43745040893555,-97.8032455444336,2796,2.0,4,45,250
29395269,5108 Regency Dr,78724,1969,279900,1,2020,30.28668212890625,-97.66128540039062,1378,2.0,3,52,203
69811276,812 Lakewood Hills Ter,78732,2006,985000,7,2020,30.35454750061035,-97.91326904296876,3540,4.0,4,15,278
2098913275,4524 Esper Ln,78725,2015,199900,10,2019,30.23842430114746,-97.5737533569336,1100,2.0,3,6,181
29353878,5704 Driftwood Dr,78731,2018,1235000,5,2018,30.36276435852051,-97.7879867553711,3602,4.0,4,3,342
250405453,814 Jacksdaw Dr,78737,2018,625000,7,2020,30.151296615600582,-97.93186950683594,3690,6.0,6,3,169
70352355,11805 Iron Horse Cv,78732,2008,899000,2,2020,30.349721908569336,-97.8953094482422,4405,4.0,5,13,204
125090634,5401 Ingersoll Ln,78744,2015,250000,3,2018,30.17607116699219,-97.69422912597656,1489,2.0,3,6,167
29344769,4010 Long Champ Dr APT 2,78746,1986,395000,3,2020,30.337974548339844,-97.80194091796876,1964,3.0,3,35,201
70352275,13241 Zen Gardens Way,78732,2013,999990,8,2019,30.34526824951172,-97.92012786865234,4000,4.0,5,8,249
83829268,8816 Southwick Dr,78724,2012,270000,5,2019,30.28055191040039,-97.6291046142578,2088,3.0,4,9,129
29351378,5212 S Scout Island Cir,78731,1992,949997,5,2019,30.35368347167969,-97.78617095947266,3972,5.0,4,29,239
94882853,11724 Shadestone Ter,78732,2011,349000,12,2019,30.348642349243164,-97.89379119873048,1859,2.0,3,10,187
70345600,3306 Wickham Ln,78725,2009,195000,10,2019,30.23305892944336,-97.59364318847656,2026,3.0,5,12,96
70992273,14524 Homestead Village Cir,78717,2006,375000,3,2018,30.495872497558604,-97.79596710205078,2801,4.0,4,15,133
70352265,7605 Lazy River Cv,78730,2014,125000,5,2018,30.34258460998535,-97.8247299194336,4069,4.0,5,7,30
29377392,11503 Taterwood Dr,78750,1981,419900,6,2019,30.44641304016113,-97.81057739257812,2776,3.0,4,40,151
83820767,6004 Nelson Oaks Dr,78724,2009,254999,5,2020,30.283950805664062,-97.6285171508789,1532,2.0,3,12,166
29361760,3401 Fritz Hughes Park Rd,78732,2001,849000,2,2020,30.3835563659668,-97.90901947021484,4162,3.0,4,20,203
29338353,9710 Scenic Bluff Dr,78733,1993,775000,8,2020,30.303674697875977,-97.8877944946289,3114,3.0,5,28,248
114156945,258 Stoney Point Rd,78737,2011,465000,2,2019,30.1737003326416,-97.99356842041016,3239,4.0,4,10,143
251030597,14919 Jolynn St,78725,2018,259000,2,2019,30.22666358947754,-97.58809661865234,2381,3.0,4,3,108
70352264,7609 Lazy River Cv,78730,2009,1000000,9,2020,30.34272003173828,-97.8250961303711,4246,4.0,5,12,235
29370392,10429 Scotland Well Dr,78750,1984,479999,4,2019,30.42445373535156,-97.7959213256836,2380,2.0,4,37,201
125739266,4707 Craigwood Dr,78725,2020,484900,11,2020,30.282136917114247,-97.66004180908205,1815,2.0,3,1,267
29351873,6603 W Courtyard Dr,78730,1989,2499000,1,2020,30.35804557800293,-97.8022003173828,4926,6.0,4,32,507
64658848,1101 Ottawa Dr,78733,2003,650000,2,2019,30.331897735595703,-97.86080169677734,3251,4.0,3,18,199
185217270,14209 Rountree Ranch Ln,78717,2010,327000,3,2019,30.493879318237305,-97.79450225830078,1859,2.0,3,11,175
29462580,14501 Fitzgibbon Dr,78725,1999,186000,1,2019,30.23445701599121,-97.58936309814452,1662,2.0,3,22,111
58300391,10756 Bramblecrest Dr,78726,2000,675000,5,2020,30.434423446655284,-97.8154754638672,4044,3.0,6,21,166
124839095,5308 Gooding Dr,78744,2015,325000,12,2020,30.17662811279297,-97.69388580322266,1693,3.0,3,6,191
63751762,14901 Nuttall Dr,78724,2004,185000,8,2020,30.25539588928223,-97.580078125,1365,2.0,3,17,135
83830766,5825 Nelson Oaks Dr,78724,2009,235000,2,2019,30.282629013061523,-97.6290054321289,1532,2.0,3,12,153
29342348,1113 Elder Cir,78733,2001,749000,9,2019,30.32570075988769,-97.84812927246094,3343,4.0,4,20,224
29353871,6501 Brownwood Ct,78731,1957,949000,7,2019,30.363155364990234,-97.78704071044922,3360,4.0,4,64,282
89547757,12513 Tierra Grande Trl,78732,2009,400000,11,2019,30.342363357543945,-97.91446685791016,2045,2.0,3,12,195
88021769,11608 Fletcher Hall Ln,78717,2005,299900,9,2018,30.498517990112305,-97.79264068603516,1837,2.0,3,16,163
83822444,7308 Mitra Dr,78739,2010,649900,9,2020,30.180700302124023,-97.91665649414062,3606,3.0,3,11,180
125805573,805 Yabers Ct,78725,2014,203000,3,2019,30.2365665435791,-97.5787124633789,1550,2.0,3,7,130
2084748889,7806 Ryans Way,78726,2019,562985,2,2020,30.40950012207031,-97.8435516357422,2799,4.0,4,2,201
29336264,1709 Laguna Loma Cv,78746,1982,1695000,5,2019,30.29911994934082,-97.78807067871094,2333,3.0,3,39,726
29395261,5204 King Charles Dr,78724,1972,309000,3,2018,30.288482666015625,-97.66338348388672,1278,2.0,3,49,241
29353870,5600 Driftwood Dr,78731,2018,1173000,2,2019,30.36306571960449,-97.78641510009766,2933,3.0,4,3,399
241930760,4604 Inicio Ln,78725,2016,187900,6,2018,30.23949432373047,-97.5743637084961,1308,3.0,3,5,143
29342345,1116 Elder Cir,78733,1993,1140000,4,2019,30.32468605041504,-97.84745025634766,4299,4.0,4,28,265
88027768,11225 Fletcher Hall Ln,78717,2003,299900,7,2018,30.49831962585449,-97.7884750366211,1880,3.0,3,18,159
202153443,197 Swallowtail Dr,78737,2015,425000,3,2020,30.164905548095703,-97.99560546875,2731,3.0,4,6,155
29353869,6502 Marblewood Dr,78731,1988,759000,10,2018,30.36336326599121,-97.78651428222656,2453,2.0,3,33,309
29375888,9202 Cedar Crest Dr,78750,1977,616000,8,2018,30.443321228027344,-97.7949447631836,3297,3.0,4,44,186
64743260,6128 Perlita Dr,78724,2004,225000,8,2020,30.29313659667969,-97.64363861083984,1230,2.0,3,17,182
89556257,15007 Mimebark Way,78724,2010,179000,7,2018,30.256296157836925,-97.58007049560548,1776,3.0,4,11,100
145656114,8212 Brahma Dr,78744,2015,249900,3,2018,30.17724227905273,-97.6938705444336,1297,2.0,3,6,192
111372751,401 Summer Alcove Way,78732,2012,899000,7,2020,30.34149932861328,-97.91222381591795,4491,5.0,5,9,200
29351365,5801 Tom Wooten Cv,78731,1984,799900,6,2019,30.354066848754886,-97.78661346435548,2329,3.0,3,37,343
83124840,213 Emerald Ridge Dr,78732,2008,975000,7,2020,30.34141731262207,-97.90648651123048,4445,5.0,5,13,219
119618443,877 Wild Rose Dr,78737,2014,389900,4,2020,30.16673851013184,-97.9854507446289,2262,3.0,3,7,172
70337262,7113 Malibu Cv,78730,2005,969500,10,2019,30.34306526184082,-97.81965637207033,3122,3.0,4,16,310
29374385,9819 Mandeville Cir,78750,1976,447450,2,2018,30.437950134277344,-97.80276489257812,3031,3.0,4,45,147
2079962106,8305 Cottage Rose Dr,78744,2020,326267,7,2020,30.16986083984375,-97.70028686523438,2110,4.0,4,1,154
29361751,14005 Hummingbird Ln,78732,1975,475000,5,2018,30.38312339782715,-97.91294860839844,1620,2.0,2,46,293
145653363,11111 Cut Plains Loop,78726,2015,440000,11,2018,30.40204620361328,-97.843017578125,2217,2.0,3,6,198
83819259,9005 Elfen Cv,78724,2008,215000,11,2019,30.28342056274414,-97.62699127197266,1341,2.0,3,13,160
114156943,125 Stoney Point Rd,78737,2012,675000,6,2020,30.17564010620117,-97.9939422607422,3234,4.0,4,9,208
29375883,9012 Fairway Hill Dr,78750,1975,680000,1,2019,30.43878555297852,-97.7911376953125,2501,2.0,3,46,271
83123966,7109 Greenshores Dr,78730,2007,5800,2,2019,30.34422492980957,-97.81741333007812,4979,6.0,5,14,1
145551605,5016 Bonneville Bnd,78744,2018,369723,7,2018,30.17864227294922,-97.6946258544922,2447,2.0,3,3,151
241937749,15016 Guffey Dr,78725,2016,204900,10,2019,30.24258804321289,-97.57825469970705,1570,2.0,3,5,130
243334255,12225 Wickline Way,78717,2016,364999,5,2019,30.493261337280284,-97.7981948852539,2244,3.0,4,5,162
29336839,3000 Barton Point Dr,78733,1990,849000,7,2020,30.29739189147949,-97.89568328857422,3397,4.0,5,31,249
64916752,6009 Perlita Dr,78724,2004,275000,4,2020,30.29172515869141,-97.64414978027344,1461,3.0,3,17,188
29372883,10401 Holme Lacey Ln,78750,1984,539000,12,2018,30.431304931640625,-97.81169891357422,2693,4.0,4,37,200
29359361,10105 Big View Dr,78730,1996,655000,6,2019,30.37522315979004,-97.8464126586914,3569,4.0,4,25,183
241930604,7113 Auburn Blaze Ln,78744,2016,431000,9,2019,30.16111183166504,-97.71944427490234,2629,3.0,4,5,163
29376382,10911 Enchanted Rock Cv,78726,1989,436900,3,2020,30.43990707397461,-97.81969451904295,2355,2.0,3,32,185
89552498,9012 Spiceland Cir,78724,2009,215000,5,2019,30.274555206298828,-97.6328125,1704,2.0,3,12,126
29343838,10012 Wildflower Ln,78733,1983,799000,8,2020,30.33267593383789,-97.87511444091795,2442,2.0,3,38,327
83123860,4101 House Of York,78730,2007,1395000,3,2020,30.36343765258789,-97.84606170654295,4109,5.0,5,14,339
70337257,3708 Pappys Way,78730,2006,999000,10,2018,30.34282112121582,-97.82121276855467,4044,4.0,4,15,247
145551603,5004 Bonneville Bnd,78744,2017,379900,12,2020,30.178409576416016,-97.69412231445312,2436,3.0,4,4,155
89548938,6612 Mitra Dr,78739,2011,778000,8,2018,30.17881202697754,-97.92249298095705,3938,4.0,4,10,197
241937747,15200 Guffey Dr,78725,2016,209900,5,2020,30.24211120605469,-97.57728576660156,1412,2.0,3,5,148
29361742,13918 Hummingbird Ln,78732,1984,544900,3,2020,30.383745193481445,-97.9113540649414,2211,3.0,3,37,246
29462554,3706 Crownover St,78725,1999,174999,2,2018,30.23410606384277,-97.58606719970705,1041,2.0,2,22,168
2090437934,135 Dry Run Cir,78737,2012,463000,6,2018,30.169198989868164,-97.9853057861328,3322,4.0,5,9,139
29372882,10315 Holme Lacey Ln,78750,1988,555000,3,2018,30.431196212768555,-97.8119888305664,2742,3.0,4,33,202
29361741,13912 Hummingbird Ln,78732,1960,384000,10,2019,30.38380241394043,-97.91087341308594,1404,2.0,2,61,273
125803744,702 Hatton Hill Ln,78725,2014,225000,7,2018,30.23770523071289,-97.5806884765625,1878,3.0,4,7,119
2142047553,4517 Felicity Ln,78725,2006,79900,2,2019,30.23602867126465,-97.56950378417967,1300,3.0,3,15,61
121720751,10620 Cannon Mark Way,78717,2014,925000,8,2020,30.48734474182129,-97.79652404785156,3822,4.0,4,7,242
29351860,6800 W Courtyard Dr,78730,1994,810000,7,2020,30.35966873168945,-97.80430603027344,3163,4.0,4,27,256
145551602,5000 Bonneville Bnd,78744,2018,349000,1,2019,30.17832565307617,-97.6939468383789,2440,4.0,4,3,143
121655881,11205 Zimmerman Ln,78726,2013,425000,5,2019,30.40890693664551,-97.84495544433594,2640,4.0,4,8,160
70352247,7608 Lazy River Cv,78730,2011,999000,10,2019,30.343341827392567,-97.82489776611328,3571,4.0,4,10,279
303838934,12912 Orihuela Dr,78652,2018,480000,9,2020,30.16860389709473,-97.91532135009766,1694,2.0,3,3,283
83123738,6304 N Fm 973,78724,1991,225000,11,2018,30.27470970153809,-97.6015625,960,1.0,2,30,234
58298859,6309 Lakewood Holw,78750,1978,489000,5,2019,30.373979568481445,-97.78881072998048,1842,2.0,3,43,265
111371244,9401 China Rose Dr,78724,2013,239900,2,2020,30.27881622314453,-97.62466430664062,1670,2.0,3,8,143
83828738,13401 Country Trails Ln,78732,2006,875000,10,2020,30.37306022644043,-97.90804290771484,4348,4.0,5,15,201
58300380,10616 Chestnut Ridge Rd,78726,2000,589900,2,2018,30.43567657470703,-97.81658172607422,4048,4.0,4,21,145
29336834,10058 Circleview Dr,78733,1988,900000,5,2020,30.29861259460449,-97.89415740966795,4516,4.0,5,33,199
145657101,4904 Bonneville Bnd,78744,2015,365000,6,2020,30.178056716918945,-97.69339752197266,2138,3.0,5,6,170
89661246,11216 Mckinney Springs Dr,78717,2010,289900,7,2018,30.491641998291016,-97.79547119140624,1651,2.0,3,11,175
251032231,5812 Montrelia Dr,78724,2017,239500,7,2019,30.259746551513672,-97.58524322509766,2029,2.0,4,4,118
202153434,129 Sandpiper Cv,78737,2015,455000,9,2019,30.164386749267567,-97.99640655517578,2677,3.0,4,6,169
29375880,9011 Mountain Lake Cir,78750,1976,675000,1,2020,30.439414978027344,-97.79261779785156,2899,3.0,3,45,232
29395244,5112 Provencial Dr,78724,1971,295000,4,2018,30.286603927612305,-97.66234588623048,1227,2.0,4,50,240
70352245,7600 Lazy River Cv,78730,2010,970000,9,2018,30.343036651611328,-97.82440185546876,3475,4.0,4,11,279
83832236,13301 Country Trails Ln,78732,2006,650000,6,2018,30.372262954711925,-97.90799713134766,4117,4.0,5,15,157
58298858,6311 Lakewood Holw,78750,1978,510000,10,2019,30.37393951416016,-97.78897857666016,1857,2.0,3,43,274
124720093,5012 Bonneville Bnd,78744,2015,410000,6,2019,30.178564071655284,-97.6944580078125,3251,3.0,3,6,126
125330933,266 Emma Loop,78737,2014,440000,1,2018,30.16376304626465,-97.9404296875,2582,3.0,4,7,170
29370379,10600 Tweedsmuir Dr,78750,1990,614990,7,2020,30.426300048828125,-97.79581451416016,2788,4.0,4,31,220
80095730,15206 Bullace St,78724,2009,212500,7,2019,30.25709724426269,-97.57693481445312,1767,2.0,3,12,120
29358857,6306 Big Cat Cv,78750,1983,435000,6,2019,30.376813888549805,-97.78762817382812,2042,3.0,4,38,213
29361735,3302 Blue Jay Ln,78732,2000,5500,8,2018,30.38371467590332,-97.91351318359376,4094,5.0,5,21,1
64434238,5916 Pinon Vista Dr,78724,2006,198900,7,2018,30.29059982299805,-97.64427185058594,1080,2.0,3,15,184
145655592,7012 Cardinal Bloom Loop,78744,2015,415000,4,2020,30.16335868835449,-97.72071838378906,2558,3.0,4,6,162
83124833,12212 Palisades Pkwy,78732,2009,590000,12,2019,30.344579696655284,-97.9074478149414,3297,4.0,4,12,178
70352240,7309 Turnbuoy Dr,78730,2006,998900,8,2018,30.3441104888916,-97.82188415527344,4855,5.0,5,15,205
2084748878,7807 Ryans Way,78726,2019,590000,11,2020,30.409610748291016,-97.84381866455078,2799,4.0,4,2,210
29363350,7811 Moonflower Dr,78750,1991,445000,3,2019,30.38959884643555,-97.8022918701172,2634,3.0,3,30,168
64632734,1305 Merlene Dr,78732,2002,459900,6,2018,30.33025360107422,-97.92434692382812,2604,3.0,4,19,176
29395234,6106 Provencial Cv,78724,1969,250000,10,2020,30.28734588623047,-97.6624984741211,1768,3.0,3,52,141
89825703,8905 Sandust Way,78719,1985,699000,12,2020,30.157459259033203,-97.68987274169922,4943,5.0,4,36,141
125230931,162 Firefall Ln,78737,2014,508900,7,2019,30.164180755615234,-97.99742126464844,3232,4.0,4,7,157
70323829,9109 Spinning Leaf Cv,78735,2005,1100000,9,2019,30.293785095214844,-97.87278747558594,3831,4.0,4,16,287
29363349,7809 Moonflower Dr,78750,1992,535000,6,2020,30.389413833618164,-97.80216217041016,2710,3.0,3,29,197
29354234,1900 Big Horn Dr,78734,1999,699000,12,2020,30.368396759033203,-97.91605377197266,2376,3.0,5,22,294
111371731,9216 China Rose Dr,78724,2013,209900,2,2018,30.27964782714844,-97.62545013427734,1509,2.0,3,8,139
29344738,6010 Long Champ Ct APT 104,78746,1985,400000,2,2019,30.33575439453125,-97.8030776977539,2038,3.0,3,36,196
88020731,11105 Los Comancheros Rd,78717,2005,260000,7,2020,30.50182342529297,-97.78810119628906,2015,3.0,3,16,129
2083228723,4513 Truth Way,78725,2016,204900,9,2019,30.238534927368164,-97.57540130615234,1308,3.0,3,5,156
29372878,10310 Holme Lacey Ln,78750,1985,699950,6,2020,30.43115043640137,-97.81352996826172,2504,3.0,3,36,279
83822733,12025 Montclair Bnd,78732,2009,242023,5,2018,30.34197998046875,-97.90885162353516,2934,3.0,4,12,82
124719589,5008 Bonneville Bnd,78744,2015,369000,5,2018,30.17848777770996,-97.6942901611328,2477,2.0,3,6,148
70352237,7416 Turnbuoy Dr,78730,2012,950000,4,2019,30.34326171875,-97.8219985961914,3490,4.0,4,9,272
111372723,5804 Knoll Pines Pass,78724,2014,198500,6,2018,30.278940200805664,-97.62605285644533,1197,2.0,3,7,165
121722729,14216 Tyburn Trl,78717,2015,599900,4,2020,30.490352630615234,-97.78958129882812,3688,5.0,5,6,162
29390723,12401 Jarrod Lee Cv,78724,2000,620000,9,2020,30.2849235534668,-97.58311462402344,4058,4.0,4,21,152
2090710344,7301 Preserve View Run,78726,2015,499000,7,2018,30.400487899780284,-97.84253692626952,2929,3.0,4,6,170
111965924,145 Turks Cap Pass,78737,2010,389000,10,2020,30.161577224731445,-97.9983901977539,2326,2.0,3,11,167
120895826,12333 Labrador Bay Ct,78732,2013,699000,11,2019,30.34527587890625,-97.90666961669922,3625,5.0,5,8,192
58300374,10741 Bramblecrest Dr,78726,2000,675000,11,2019,30.43511390686035,-97.81609344482422,4226,4.0,5,21,159
83831720,8708 Southwick Dr,78724,2009,230000,4,2020,30.281389236450195,-97.62873840332033,1341,2.0,3,12,171
29554229,12509 Split Rail Pkwy,78750,1978,299900,9,2020,30.46353530883789,-97.80491638183594,2088,3.0,4,43,143
29361730,3400 Blue Jay Ln,78732,1978,349000,4,2018,30.385040283203125,-97.91268157958984,1152,2.0,3,43,302
29351336,5802 Harrington Cv,78731,1981,485000,6,2018,30.35539245605469,-97.78881072998048,2281,3.0,3,40,212
2120767423,591 Wild Rose Dr,78737,2012,465000,7,2020,30.16945075988769,-97.98308563232422,2974,4.0,5,9,156
29376374,11010 Crossland Dr,78726,1992,450000,3,2018,30.439741134643555,-97.82095336914062,2778,3.0,5,29,161
243336223,12117 Wickline Way,78717,2016,345000,6,2019,30.49182510375977,-97.79830932617188,1771,2.0,4,5,194
70352228,7001 Greenshores Dr,78730,2005,822500,8,2018,30.34381866455078,-97.81644439697266,3600,4.0,4,16,228
114406373,12100 Terraza Cir #TOWNHOUSE 26,78726,2009,357000,2,2020,30.42831611633301,-97.8457260131836,2248,3.0,3,12,158
29336824,10036 Circleview Dr,78733,1991,669000,6,2019,30.30074691772461,-97.89563751220705,2623,3.0,3,30,255
29469515,6304 Us Highway 183 S,78744,1984,255000,12,2020,30.166643142700195,-97.6927490234375,1514,2.0,4,37,168
89663718,14112 Canyon Trl,78717,2010,399000,9,2020,30.49182319641113,-97.79440307617188,1841,2.0,3,11,216
111372213,9408 Southwick Dr,78724,2014,319000,10,2020,30.277530670166016,-97.62515258789062,1825,3.0,3,7,174
58300371,10727 Bramblecrest Dr,78726,2000,521000,6,2018,30.43569564819336,-97.81621551513672,3450,4.0,4,21,151
29363331,8125 Vailview Cv,78750,1999,824900,12,2019,30.391658782958984,-97.80066680908205,3804,4.0,6,22,216
29344726,4104 Belmont Park Dr,78746,1992,1140000,10,2018,30.33769607543945,-97.80136108398438,3419,4.0,4,29,333
251036578,8213 Bestride Bnd,78744,2019,409900,10,2019,30.14987564086914,-97.72188568115234,2150,2.0,3,2,190
83124823,12116 Azure Shores Ct,78732,2009,675000,10,2018,30.33999443054199,-97.9076690673828,4336,4.0,5,12,155
88016214,11213 Crazy Well Dr,78717,2005,214900,3,2020,30.500585556030284,-97.78854370117188,1626,2.0,3,16,132
29351824,5616 N Scout Island Cir,78731,1992,875000,6,2020,30.35690879821777,-97.78998565673828,3481,3.0,4,29,251
29342225,2913 Waterbank Cv,78746,2005,1488000,4,2018,30.325597763061523,-97.8033218383789,4621,6.0,5,16,322
64698200,5900 Pinon Vista Dr,78724,2005,220000,11,2020,30.2901611328125,-97.64403533935548,1101,2.0,3,16,199
83817227,12717 Belcara Pl,78732,2007,433500,6,2019,30.349103927612305,-97.91297149658205,3118,4.0,4,14,139
29554214,12503 Burlywood Trl,78750,1978,400000,12,2020,30.4641170501709,-97.80619049072266,2510,3.0,5,43,159
29334589,2105 Wimberly Ln,78735,2000,1125000,1,2021,30.29496765136719,-97.87419891357422,3882,4.0,4,21,289
58301197,8405 Riverstone Dr,78724,2002,185300,5,2018,30.293176651000977,-97.62834167480467,2160,4.0,6,19,85
145657207,4529 Cleto St,78725,2015,209900,7,2018,30.24049949645996,-97.5771713256836,1653,3.0,3,6,126
111965420,409 Wild Rose Dr,78737,2010,412990,2,2018,30.17009735107422,-97.9853973388672,2855,3.0,4,11,144
89459969,7305 Aemilian Way,78730,2008,1349000,5,2019,30.33327865600586,-97.82745361328124,4266,6.0,5,13,316
80101727,600 Santaluz Path,78732,2011,799900,5,2020,30.339881896972656,-97.91956329345705,4299,6.0,5,10,186
29363323,8005 Bottlebrush Dr,78750,1996,375000,8,2019,30.392667770385746,-97.80182647705078,3423,4.0,5,25,109
89657213,14220 Canyon Trl,78717,2009,329000,8,2019,30.49204635620117,-97.79328155517578,1914,2.0,4,12,171
145656704,4614 Belfield Ln,78725,2015,196900,5,2019,30.242246627807614,-97.5787353515625,1225,2.0,3,6,160
29336820,10028 Circleview Dr,78733,1992,725000,5,2019,30.30150985717773,-97.89502716064452,3490,4.0,4,29,207
28591920,16108 Crystal Hills Dr,78737,1993,975000,12,2018,30.14590263366699,-97.97178649902344,3258,3.0,4,28,299
64482227,13920 Flat Top Ranch Rd,78732,2003,875000,3,2020,30.38017463684082,-97.9113998413086,4273,4.0,5,18,204
29375867,9016 Mountain Lake Cir,78750,1976,1125000,3,2020,30.43991661071777,-97.7931671142578,4986,3.0,5,45,225
58298822,6208 Turkey Holw,78750,1981,625000,7,2020,30.37495040893555,-97.78783416748048,2488,2.0,3,40,251
2090138075,7804 Glover Dr,78744,2018,309285,9,2018,30.15812110900879,-97.71551513671876,1737,2.0,3,3,178
125746319,2301 Saratoga Dr,78733,2019,758822,5,2019,30.34770774841309,-97.86649322509766,2779,3.0,3,2,273
83829692,5913 Nelson Oaks Dr,78724,2009,265000,7,2020,30.28308486938477,-97.62879943847656,1704,2.0,3,12,155
242020199,4602 Graceful Ln #510,78725,2017,202000,5,2020,30.24014091491699,-97.57584381103516,1310,3.0,3,4,154
2088160918,1337 Grassy Field Rd,78737,2018,619900,9,2020,30.168500900268555,-97.9999008178711,3820,4.0,4,3,162
29343473,5707 Carry Back Ln,78746,1985,788950,10,2018,30.33145904541016,-97.80150604248048,2435,3.0,4,36,324
83826719,12604 Belcara Pl,78732,2007,440000,1,2019,30.34843444824219,-97.91136169433594,2682,3.0,3,14,164
29368367,8500 Spicewood Mesa Cv,78759,1996,650000,8,2018,30.41891670227051,-97.79017639160156,3119,4.0,5,25,208
119811212,11620 Faubian Ln,78717,2013,345000,4,2018,30.48998832702637,-97.79853057861328,2220,3.0,3,8,155
29355996,6508 Cuesta Trl,78730,1998,719900,4,2018,30.378204345703125,-97.81777954101562,4032,4.0,4,23,178
83826317,2321 Rivina Dr,78733,2011,700000,6,2020,30.312753677368164,-97.90403747558594,2162,2.0,4,10,323
125234417,586 Emma Loop,78737,2014,594900,3,2020,30.15910530090332,-97.94163513183594,3509,4.0,4,7,169
29375866,9018 Mountain Lake Cir,78750,1993,650000,2,2019,30.44017791748047,-97.79298400878906,3150,4.0,5,28,206
83821706,12224 Montclair Bnd,78732,2010,525000,12,2018,30.343486785888672,-97.90775299072266,2946,4.0,4,11,178
145655493,5400 Bonneville Bnd,78744,2016,287800,5,2019,30.17739105224609,-97.69792938232422,1739,2.0,4,5,165
70348211,7101 Greenshores Dr,78730,2007,915000,5,2020,30.34409713745117,-97.8170928955078,3141,4.0,5,14,291
29351820,5608 N Scout Island Cir,78731,1993,819500,6,2020,30.35674476623535,-97.7891082763672,2902,3.0,3,28,282
119621415,12608 Padua Dr,78739,2014,925000,9,2020,30.173349380493164,-97.90788269042967,4157,5.0,5,7,222
29343816,9824 Timber Ridge Pass,78733,1976,439850,1,2018,30.33027458190918,-97.87179565429688,2000,2.0,4,45,219
64857865,10104 Chestnut Ridge Rd,78726,2003,599900,6,2018,30.43475341796875,-97.82444763183594,4006,4.0,5,18,149
70352206,12937 Zen Gardens Way,78732,2010,1350000,6,2020,30.3413143157959,-97.92223358154295,4532,5.0,4,11,297
29336816,10020 Circleview Dr,78733,1992,750000,10,2018,30.3021240234375,-97.894287109375,3498,3.5,5,29,214
89550915,7004 Mitra Dr,78739,2012,712500,11,2019,30.177490234375,-97.91802978515624,3692,4.0,5,9,192
80104819,8110 Ranch Road 2222 APT 83,78730,2010,639500,8,2019,30.3817195892334,-97.80647277832033,1823,3.0,2,11,350
29374365,10901 Spicewood Pkwy,78750,1975,590000,8,2020,30.43362808227539,-97.79999542236328,2534,3.0,4,46,232
249913071,7320 Van Ness St,78744,2018,400000,7,2020,30.15828514099121,-97.71497344970705,2116,2.0,3,3,189
70352478,700 Lakewood Hills Ter,78732,2011,825000,6,2018,30.352081298828125,-97.91204833984376,4749,4.0,4,10,173
29336815,10018 Circleview Dr,78733,1992,874500,12,2019,30.302207946777344,-97.89403533935548,3420,4.0,5,29,255
243338197,10602 Turnbull Loop,78717,2017,360000,9,2020,30.47858810424805,-97.78752136230467,1977,3.0,3,4,182
60135188,3906 Reeders Dr,78725,2002,204000,8,2019,30.23955345153809,-97.588623046875,1371,2.0,3,19,148
29370363,8405 Sweetness Ln,78750,1996,445000,4,2019,30.422908782958984,-97.78670501708984,4060,5.0,5,25,109
124904977,12804 River Bnd,78732,2018,139990,4,2018,30.32984733581543,-97.92691040039062,2326,0.0,3,3,60
83830318,10200 Milky Way,78730,2007,1499900,9,2020,30.384387969970703,-97.84532928466795,4282,5.0,4,14,350
29342206,2911 Round Table Rd,78746,1993,879000,12,2018,30.32662010192871,-97.80720520019533,2885,4.0,4,28,304
29343813,9830 Timber Ridge Pass,78733,1984,489000,3,2019,30.32986068725586,-97.87095642089844,2131,3.0,3,37,229
80081913,190 Winecup Way,78737,2006,365000,11,2019,30.171741485595703,-97.9967269897461,2739,3.0,4,15,133
83828998,9020 Southwick Dr,78724,2010,219997,2,2019,30.27898979187012,-97.62812042236328,1318,2.0,3,11,166
89656195,11205 Old Quarry Rd,78717,2009,319900,7,2019,30.49250030517578,-97.79228973388672,2323,3.0,4,12,137
2102202682,4620 Kind Way,78725,2014,187000,5,2018,30.2393856048584,-97.57250213623048,1110,2.0,3,7,168
29550362,12003 Mossbrook Cv,78750,1974,635000,11,2019,30.44544792175293,-97.7911376953125,2400,3.0,4,47,264
83124812,12101 Azure Shores Ct,78732,2008,895000,8,2019,30.3394832611084,-97.90682220458984,4407,4.0,5,13,203
29342202,5802 Round Table Cv,78746,1994,630000,9,2020,30.326276779174805,-97.80589294433594,2966,3.0,5,27,212
119629407,854 Wild Rose Dr,78737,2014,342000,8,2018,30.167240142822266,-97.98507690429688,1753,2.0,3,7,195
70352477,704 Lakewood Hills Ter,78732,2007,800000,10,2020,30.35227012634277,-97.91213989257812,3385,5.0,4,14,236
29344698,4246 Westlake Dr,78746,1984,850000,7,2019,30.33401107788086,-97.80368041992188,2945,3.0,4,37,288
29334477,8207 Scenic Ridge Cv,78735,2001,1295000,12,2020,30.296186447143555,-97.85687255859376,4434,5.0,4,20,292
29351312,5403 S Scout Island Cir,78731,1990,850000,12,2018,30.353816986083984,-97.78807830810548,3134,3.0,4,31,271
80097164,5228 Bantom Woods Bnd,78724,2008,250000,8,2018,30.27441024780273,-97.6309585571289,2280,3.0,4,13,109
70352696,12913 Little Dipper Path,78732,2007,574000,7,2020,30.36002349853516,-97.9085922241211,2972,4.0,4,14,193
303836956,158 Short Bush Pass,78737,2019,560000,4,2020,30.164121627807614,-97.99842071533205,3300,3.0,4,2,169
29588860,13413 Lois Ln,78750,1971,385000,9,2019,30.4499626159668,-97.79490661621094,2111,2.5,4,50,182
58297811,1609 Acacia Bud Dr,78733,2000,997500,6,2019,30.31362533569336,-97.89656066894533,4334,6.0,5,21,230
58298811,6912 Ridge Holw,78750,1992,439900,11,2018,30.37227439880371,-97.7916488647461,2422,3.0,3,29,181
120088690,11700 Harpster Bnd,78717,2013,395000,8,2019,30.489749908447266,-97.79959869384766,2528,3.0,4,8,156
122188902,370 Whispering Wind Way,78737,2013,459900,2,2018,30.16082191467285,-97.9991455078125,3208,3.5,4,8,143
60138180,14300 Varrelman St,78725,2002,178000,5,2018,30.238445281982425,-97.58892059326172,1655,3.0,3,19,107
29375859,9300 Spring Hollow Dr,78750,1975,449000,9,2019,30.44181251525879,-97.79541778564452,3020,3.0,3,46,148
29336811,10019 Circleview Dr,78733,1988,679000,5,2020,30.301591873168945,-97.89390563964844,2625,3.0,4,33,258
29342191,2803 Round Table Rd,78746,1995,975000,6,2019,30.325422286987305,-97.8087158203125,3225,4.0,4,26,302
80101310,4312 Turkey Creek Dr,78730,2006,1890000,7,2020,30.360185623168945,-97.83799743652344,3899,4.0,3,15,484
83829191,12316 Montclair Bnd,78732,2009,525000,11,2020,30.343730926513672,-97.90894317626952,2934,4.0,4,12,178
241933065,7116 Sienna Rouge Path,78744,2016,345000,5,2020,30.16472625732422,-97.72440338134766,2035,3.0,3,5,169
2083627357,7908 Ryans Way,78726,2020,505780,9,2020,30.40957450866699,-97.8430633544922,2258,3.0,4,1,223
83124810,12109 Azure Shores Ct,78732,2008,1045000,4,2019,30.339466094970703,-97.90736389160156,4326,6.0,5,13,241
96635187,13021 Hymeadow Cir,78729,2011,349900,6,2019,30.46305847167969,-97.78746032714844,2382,2.0,4,10,146
29344687,3702 Needles Dr,78746,1982,998500,12,2018,30.33417320251465,-97.80531311035156,3000,4.0,4,39,332
60135174,4001 Sojourner St,78725,2002,210010,7,2020,30.23992919921875,-97.5887451171875,1371,2.0,3,19,153
29363309,8106 Pampas Cv,78750,1991,769900,9,2019,30.390159606933604,-97.80152130126952,3456,4.0,4,30,222
111719175,11416 Running Brush Ln,78717,2011,350000,9,2019,30.49356842041016,-97.79790496826172,1864,2.0,3,10,187
83124842,12216 Palisades Pkwy,78732,2009,710000,11,2020,30.34462928771973,-97.90767669677734,3997,5.0,5,12,177
29375856,9202 Spring Hollow Dr,78750,1976,549900,7,2019,30.44168281555176,-97.79448699951172,2400,2.0,3,45,229
111719174,11424 Running Brush Ln,78717,2011,400000,6,2020,30.493682861328125,-97.79757690429688,2342,3.0,4,10,170
29370356,8517 Sweet Cherry Dr,78750,1996,625000,9,2019,30.42352294921875,-97.78775024414062,3335,4.0,4,25,187
58297810,1608 Acacia Bud Dr,78733,2001,674900,6,2018,30.31379699707031,-97.89714813232422,4552,4.0,4,20,148
83821658,8908 Southwick Dr,78724,2012,169800,2,2020,30.28008270263672,-97.6289291381836,2088,3.0,4,9,81
29363305,8101 Pampas Cv,78750,1994,575000,12,2018,30.390125274658203,-97.8005142211914,2428,3.0,3,27,236
241933063,7100 Sienna Rouge Path,78744,2016,385000,3,2020,30.16521453857422,-97.72405242919922,2571,3.0,4,5,149
121724673,11000 Leland Rich Ct,78717,2015,624900,2,2020,30.49009323120117,-97.79104614257812,3081,4.0,4,6,202
89549186,325 Palo Alto Way,78732,2009,499000,8,2020,30.34748840332031,-97.91311645507812,2764,3.0,5,12,180
29342183,2914 Round Table Rd,78746,1988,750000,6,2020,30.32695579528809,-97.8079605102539,2814,4.0,4,33,266
29346810,2101 Cochise Trl,78733,1965,322500,1,2020,30.34288787841797,-97.8632583618164,1586,0.0,0,56,203
83823656,8916 China Rose Dr,78724,2009,235000,3,2019,30.28098297119141,-97.62830352783205,1532,2.0,3,12,153
29372855,10407 Pickfair Dr,78750,1985,550000,11,2018,30.43183708190918,-97.81067657470705,2500,3.0,3,36,220
29363376,7808 Moonflower Dr,78750,1992,475000,4,2020,30.38929557800293,-97.80272674560548,3484,3.5,4,29,136
60138171,4107 Louise Lee Dr,78725,2003,249000,5,2020,30.24028778076172,-97.58647918701172,2277,3.0,4,18,109
29343809,9807 Lake Ridge Dr,78733,1979,829000,10,2019,30.33136940002441,-97.87201690673828,3226,4.0,4,42,256
125232898,136 Welshpool Ct,78737,2014,615000,5,2019,30.179458618164062,-97.98147583007812,3545,5.0,4,7,173
89546185,301 Palo Alto Way,78732,2008,374000,5,2018,30.346885681152344,-97.9138412475586,2258,2.0,3,13,165
111373149,9321 Southwick Dr,78724,2015,259000,10,2019,30.277324676513672,-97.62582397460938,1847,3.0,3,6,140
58298795,6515 Twin Creek Holw,78750,1992,550000,5,2019,30.37299346923828,-97.79244995117188,2387,3.0,3,29,230
29368353,8408 Horse Mountain Cv,78759,1993,1150000,10,2020,30.4173641204834,-97.79063415527344,3951,5.0,5,28,291
96587820,602 Big Meadow Rd,78737,2009,450000,12,2020,30.16221618652344,-97.99842834472656,2964,3.0,4,12,151
29344674,4004 Belmont Park Dr,78746,1989,839000,2,2018,30.33693504333496,-97.80072784423828,3448,5.0,5,32,243
29336809,10023 Circleview Dr,78733,1987,750000,7,2019,30.30129432678223,-97.89432525634766,2688,4.0,4,34,279
96642672,13020 Hymeadow Cir,78729,2011,399000,5,2018,30.4633903503418,-97.787841796875,2687,4.0,3,10,148
29351295,5718 Sam Houston Cir,78731,1980,399900,10,2019,30.35379981994629,-97.78922271728516,2451,3.0,4,41,163
60135169,3908 Sojourner St,78725,2002,198700,6,2018,30.24001121520996,-97.58934020996094,1780,2.0,3,19,111
125915673,2600 Arion Cir,78730,2019,1199000,3,2020,30.33525466918945,-97.82906341552734,3796,5.0,5,2,315
29336807,10027 Circleview Dr,78733,1992,775000,11,2019,30.30099868774414,-97.89469909667967,2984,4.0,4,29,259
145658850,7016 Cardinal Bloom Loop,78744,2015,450000,12,2020,30.16345405578613,-97.72087097167967,2023,3.0,3,6,222
306647642,6217 Florencia Ln,78724,2019,455900,10,2020,30.29288101196289,-97.64111328125,2271,3.0,3,2,200
60135161,4104 Sojourner St,78725,2002,189500,12,2018,30.24109268188477,-97.58866119384766,1558,2.0,3,19,121
29566850,11210 Salt Cedar Trl,78750,1979,299750,6,2018,30.462322235107425,-97.81182098388672,1728,2.0,3,42,173
29343802,203 N Lake Hills Dr,78733,1979,285000,10,2018,30.329856872558604,-97.8737335205078,2536,0.0,0,42,112
63834670,7113 Barefoot Cv,78730,2004,1089500,7,2019,30.34349822998047,-97.81871032714844,3375,3.0,3,17,322
83817142,9008 Southwick Dr,78724,2012,249000,7,2020,30.27912139892578,-97.62850189208984,1203,2.0,3,9,206
119621889,1791 Cool Spring Way,78737,2017,539900,5,2019,30.16566276550293,-97.9983901977539,3567,4.0,4,4,151
2089111155,6301 Diamondleaf Bnd,78724,2018,194990,7,2018,30.25859832763672,-97.57653045654295,1338,2.0,3,3,145
58298794,6519 Twin Creek Holw,78750,1992,499500,3,2019,30.37311363220215,-97.79268646240234,2323,2.0,4,29,215
89549801,10449 Jennys Jump Dr,78733,2008,1375000,7,2018,30.33533096313477,-97.87879943847656,4557,5.0,5,13,301
120772669,13716 Loleta Way,78717,2013,360000,3,2020,30.490514755249023,-97.79891967773438,1738,2.0,4,8,207
83824373,13512 Coleto Creek Trl,78732,2006,750000,10,2020,30.37221527099609,-97.90846252441406,4252,4.0,5,15,176
111962388,409 Blazing Star Dr,78737,2010,589000,7,2019,30.17344093322754,-98.00354766845705,4164,4.0,5,11,141
60138154,4009 Reeders Dr,78725,2002,206900,3,2019,30.24006652832031,-97.58772277832033,1875,3.0,3,19,110
29374411,10803 Bonaparte Bnd,78750,1976,499000,7,2018,30.43395805358887,-97.80347442626952,2348,2.0,3,45,212
241933053,7021 Sienna Rouge Path,78744,2017,312000,4,2018,30.1650505065918,-97.72355651855467,1844,2.0,3,4,169
29356288,9309 Leaning Rock Cir,78730,1992,1199000,7,2020,30.3818416595459,-97.82889556884766,4341,5.0,5,29,276
120772665,13914 Turkey Hollow Trl,78717,2012,330000,6,2020,30.490129470825195,-97.79647064208984,1534,2.0,3,9,215
80077386,169 Enchanted Cv,78737,2006,499996,5,2020,30.17192077636719,-97.99861145019533,3083,3.0,5,15,162
64812633,5616 Toscana Ave,78724,2006,294000,11,2020,30.28756523132324,-97.64532470703124,1395,3.0,3,15,210
83813675,216 El Socorro Ln,78732,2007,350000,1,2018,30.347795486450195,-97.9152603149414,2616,3.0,4,14,133
83828801,1405 University Club Dr,78732,2012,1075000,10,2018,30.34506607055664,-97.89356994628906,4791,5.0,5,9,224
241933052,7101 Sienna Rouge Path,78744,2016,299000,8,2019,30.164926528930664,-97.72361755371094,2248,2.0,4,5,133
63834666,3721 Pappys Way,78730,2004,1475000,7,2018,30.34293556213379,-97.8203582763672,4315,4.0,4,17,341
